[
{"DOH code":"2593","Hospital":"Mariano Marcos Memorial & Medical Center","HospitalID\nDoH Short Code":"2593","LATITUDE":"18.060359","LONGITUDE":"120.559341","Region":"Region 1","Province":"Ilocos Norte","Address":"Brgy. 6, San Julian, Batac, Ilocos Norte","Contact":"77-7923144 / 6008000 / 77-7731770 / 7720303","Type":"Public - DOH Retained","Service Capability Level":"Level 3","Capacity":"200","COVID Capacity\n(Y/N)":"","Notes":"From Sec Duque's EA: \nAll hospitals, whether public or private, should accommodate anyone and be able to take their samples. THEY ARE NOT ALLOWED TO TURN ANYONE DOWN."},
{"DOH code":"2073","Hospital":"Gov. Roque B. Ablan Sr. Memorial Hospital","HospitalID\nDoH Short Code":"2073","LATITUDE":"18.199188","LONGITUDE":"120.601442","Region":"Region 1","Province":"Ilocos Norte","Address":"Brgy. 23, San Matias, P. Gomez St., Laoag, Ilocos Norte","Contact":"7704155 fax","Type":"Public","Service Capability Level":"Level 2","Capacity":"100","COVID Capacity\n(Y/N)":"","Notes":"RITM houses the laboratory for running confirmatory tests, so hospitals forward the samples to them"},
{"DOH code":"2185","Hospital":"Sta. Teresita Hospital, Inc.","HospitalID\nDoH Short Code":"2185","LATITUDE":"18.0152","LONGITUDE":"120.673971","Region":"Region 1","Province":"Ilocos Norte","Address":"Brgy. Fortuna, Marcos, ilocos Norte","Contact":"-","Type":"Private","Service Capability Level":"Level 2","Capacity":"50","COVID Capacity\n(Y/N)":"","Notes":""},
{"DOH code":"5640","Hospital":"The Black Nazarene Hospital, Inc.","HospitalID\nDoH Short Code":"5640","LATITUDE":"18.173874","LONGITUDE":"120.592998","Region":"Region 1","Province":"Ilocos Norte","Address":"29 Bonoan St., Brgy. 2, San Nicolas, Ilocos Norte","Contact":"077-7731757 / 0920-9556675 / 7731757 fax / theblacknazarene1296@yahoo.com","Type":"Private","Service Capability Level":"Level 2","Capacity":"18","COVID Capacity\n(Y/N)":"","Notes":""},
{"DOH code":"32085","Hospital":"Northside Doctors Hospital","HospitalID\nDoH Short Code":"32085","LATITUDE":"17.603378","LONGITUDE":"120.394031","Region":"Region 1","Province":"Ilocos Sur","Address":"Guimod, Bantay, Ilocos Sur","Contact":"077-6040474 / 0475","Type":"Private","Service Capability Level":"Level 2","Capacity":"100","COVID Capacity\n(Y/N)":"","Notes":""},
{"DOH code":"5002","Hospital":"Gabriela Silang General Hospital","HospitalID\nDoH Short Code":"5002","LATITUDE":"17.553405","LONGITUDE":"120.379606","Region":"Region 1","Province":"Ilocos Sur","Address":"Quirino Blvd., Tamag, Vigan City, Ilocos Sur","Contact":"077-7227099/7339","Type":"Public","Service Capability Level":"Level 2","Capacity":"100","COVID Capacity\n(Y/N)":"","Notes":"For severe cases, RITM, Lung Center, and San Lazaro are the MAIN DOH hospitals for proper clinical management"},
{"DOH code":"5358","Hospital":"City of Candon Hospital","HospitalID\nDoH Short Code":"5358","LATITUDE":"17.184805","LONGITUDE":"120.445659","Region":"Region 1","Province":"Ilocos Sur","Address":"San Nicolas, Candon, Ilocos Sur","Contact":"077-7425675","Type":"Public","Service Capability Level":"Level 2","Capacity":"25","COVID Capacity\n(Y/N)":"","Notes":"Guidelines on the management and referrals of suspected and confirmed COVID-19 Cases under Code Red: \n-All municipal and city health offices are directed to triage and manage all patients suspected to have COVID 19\n-They must coordinate with brgy. Emergency Health Response Teams for monitoring those in home quarantine\n-ALL Level 2 and 3 hospitals must ATTEND TO ALL PATIENTS suspected to have COVID 19 and those confirmed but with mild symptoms\n-ALL Level 2 and 3 hospitals are encouraged to designate a triage  area in ER for screening purposes\n-ALL Level 2 and 3 hospitals are NOT TO REFUSE patients suspected or diagnosed with COVID 19. \n-Only CONFIRMED COVID 19 PATIENTS that are SEVERE AND CRITICAL shall ber eferred to RITM, San Lazaro, and Lung Center"},
{"DOH code":"5234","Hospital":"Metro Vigan Multi-Purpose Cooperative Hospital","HospitalID\nDoH Short Code":"5234","LATITUDE":"17.580801","LONGITUDE":"120.386556","Region":"Region 1","Province":"Ilocos Sur","Address":"Roxas Dike, Bantay, Ilocos Sur","Contact":"077-6340674 / mvch_1998@yahoo.com.ph","Type":"Private","Service Capability Level":"Level 2","Capacity":"61","COVID Capacity\n(Y/N)":"","Notes":""},
{"DOH code":"2877","Hospital":"La Union Medical Center","HospitalID\nDoH Short Code":"2877","LATITUDE":"16.346533","LONGITUDE":"120.363759","Region":"Region 1","Province":"La Union","Address":"Nazareno, Agoo, La Union","Contact":"launionmedicalcenter@ymail.com","Type":"Public","Service Capability Level":"Level 2","Capacity":"100","COVID Capacity\n(Y/N)":"","Notes":""},
{"DOH code":"5674","Hospital":"La Union Medical Diagnostic Center and Hospital, Inc.","HospitalID\nDoH Short Code":"5674","LATITUDE":"16.61495","LONGITUDE":"120.31567","Region":"Region 1","Province":"La Union","Address":"Ancheta St. cor. Bucaneg St., San Fernando City, La Union","Contact":"6078339 / 6078340 / 8887801 fax / launionmed@gmail.com","Type":"Private","Service Capability Level":"Level 2","Capacity":"18","COVID Capacity\n(Y/N)":"","Notes":""},
{"DOH code":"2777","Hospital":"Ilocos Training and Regional Medical Center","HospitalID\nDoH Short Code":"2777","LATITUDE":"16.591141","LONGITUDE":"120.318309","Region":"Region 1","Province":"La Union","Address":"Brgy. Parian, San Fernando City, La Union","Contact":"itrmc2010@yahoo.com","Type":"Public - DOH Retained","Service Capability Level":"Level 3","Capacity":"300","COVID Capacity\n(Y/N)":"","Notes":"Sources"},
{"DOH code":"400","Hospital":"Lorma Medical Center, Inc.","HospitalID\nDoH Short Code":"400","LATITUDE":"16.63145","LONGITUDE":"120.317906","Region":"Region 1","Province":"La Union","Address":"Carlatan, San Fernando City, La Union","Contact":"072-8882616 / 2423621","Type":"Private","Service Capability Level":"Level 3","Capacity":"200","COVID Capacity\n(Y/N)":"","Notes":""},
{"DOH code":"5004","Hospital":"Bethany Hospital, Inc.","HospitalID\nDoH Short Code":"5004","LATITUDE":"16.614193","LONGITUDE":"120.317705","Region":"Region 1","Province":"La Union","Address":"Widdoes St., Brgy. II, San Fernando City, La Union","Contact":"072-2420804 / 6075396 / 6078694","Type":"Private","Service Capability Level":"Level 2","Capacity":"80","COVID Capacity\n(Y/N)":"","Notes":""},
{"DOH code":"5449","Hospital":"Urdaneta Sacred Heart Hospital, Inc.","HospitalID\nDoH Short Code":"5449","LATITUDE":"15.980665","LONGITUDE":"120.570839","Region":"Region 1","Province":"Pangasinan","Address":"McArthur Highway, San Vicente, Urdaneta City, Pangasinan","Contact":"075-5682294-96 / 6562299 fax / ushhi1@yahoo.com","Type":"Private","Service Capability Level":"Level 2","Capacity":"128","COVID Capacity\n(Y/N)":"","Notes":""},
{"DOH code":"3225","Hospital":"Tayug Family Hospital","HospitalID\nDoH Short Code":"3225","LATITUDE":"15.99387","LONGITUDE":"120.722854","Region":"Region 1","Province":"Pangasinan","Address":"Barangobong, Tayug, Pangasinan","Contact":"075-6324374 / 09088-8141346 / tayugfamilyhospital@yahoo.com","Type":"Private","Service Capability Level":"Level 2","Capacity":"48","COVID Capacity\n(Y/N)":"","Notes":""},
{"DOH code":"273","Hospital":"Region I Medical Center","HospitalID\nDoH Short Code":"273","LATITUDE":"16.048813","LONGITUDE":"120.341413","Region":"Region 1","Province":"Pangasinan","Address":"Arellano St., Dagupan City, Pangasinan","Contact":"region1mc@gmail.com","Type":"Public - DOH Retained","Service Capability Level":"Level 2/3","Capacity":"300","COVID Capacity\n(Y/N)":"","Notes":"DOH - List of Licensed Government and Private Hospitals as of Dec 31, 2017 (with loc, contact information, service capability, and ownership classification)."},
{"DOH code":"3120","Hospital":"Medical Centrum Dagupan","HospitalID\nDoH Short Code":"3120","LATITUDE":"16.046177","LONGITUDE":"120.352576","Region":"Region 1","Province":"Pangasinan","Address":"A.B. Fernandez Ave., East Dagupan City, Pangasinan","Contact":"075-5225725","Type":"Private","Service Capability Level":"Level 2","Capacity":"42","COVID Capacity\n(Y/N)":"","Notes":""},
{"DOH code":"3555","Hospital":"Specialist Group Hospital and Trauma Center","HospitalID\nDoH Short Code":"3555","LATITUDE":"16.030802","LONGITUDE":"120.329021","Region":"Region 1","Province":"Pangasinan","Address":"Tapuac District, Dagupan City, Pangasinan","Contact":"075-5222254 / 5230131 fax / carl_md2000@yahoo.com","Type":"Private","Service Capability Level":"Level 2","Capacity":"80","COVID Capacity\n(Y/N)":"","Notes":""},
{"DOH code":"4631","Hospital":"Blessed Family Doctors General Hospital","HospitalID\nDoH Short Code":"4631","LATITUDE":"15.918771","LONGITUDE":"120.355874","Region":"Region 1","Province":"Pangasinan","Address":"Brgy. Ilang, San Carlos City, Pangasinan","Contact":"075-5312196 / 6332381 / bfdgh_2003@yahoo.com.ph","Type":"Private","Service Capability Level":"Level 2","Capacity":"75","COVID Capacity\n(Y/N)":"","Notes":""},
{"DOH code":"6871","Hospital":"Pangasinan Doctors Hospital","HospitalID\nDoH Short Code":"6871","LATITUDE":"15.940091","LONGITUDE":"120.345571","Region":"Region 1","Province":"Pangasinan","Address":"Rizal Ave., San Carlos City, Pangasinan","Contact":"075-6325870 or 71 / pdhjuly2000@yahoo.com","Type":"Private","Service Capability Level":"Level 2","Capacity":"37","COVID Capacity\n(Y/N)":"","Notes":""},
{"DOH code":"1917","Hospital":"Pangasinan Provincial Hospital","HospitalID\nDoH Short Code":"1917","LATITUDE":"15.954111","LONGITUDE":"120.349924","Region":"Region 1","Province":"Pangasinan","Address":"Bolingit, San Carlos City, Pangasinan","Contact":"075-5323603 / pphscgh@yahoo.com","Type":"Public","Service Capability Level":"Level 2","Capacity":"150","COVID Capacity\n(Y/N)":"","Notes":"DOH - Partial List of Licensed Level 2 and 3 hospitals with Ambulance as of Dec 31, 2018 (with address)"},
{"DOH code":"370","Hospital":"Elguira General Hospital","HospitalID\nDoH Short Code":"370","LATITUDE":"15.937539","LONGITUDE":"120.346523","Region":"Region 1","Province":"Pangasinan","Address":"259 Rizal Ave., San Carlos City, Pangasinan","Contact":"075-5324481 / eghfprcci@yahoo.com / shelguira1004@gmail.com","Type":"Private","Service Capability Level":"Level 2","Capacity":"30","COVID Capacity\n(Y/N)":"","Notes":""},
{"DOH code":"1806","Hospital":"Virgen Milagrosa Medical Center","HospitalID\nDoH Short Code":"1806","LATITUDE":"15.92051","LONGITUDE":"120.341622","Region":"Region 1","Province":"Pangasinan","Address":"Martin P. Posadas Ave., San Carlos City, Pangasinan","Contact":"075-6341111 / 5312222 / 9555222 / 2030000 / 6324094 / 6324033 fax","Type":"Private","Service Capability Level":"Level 2","Capacity":"75","COVID Capacity\n(Y/N)":"","Notes":""},
{"DOH code":"4637","Hospital":"Nazareth General Hospital, Inc.","HospitalID\nDoH Short Code":"4637","LATITUDE":"16.040832","LONGITUDE":"120.340372","Region":"Region 1","Province":"Pangasinan","Address":"203 Perez Blvd., Dagupan City, Pangasinan","Contact":"075-5220044 / 5221071 / ngh1959@yahoo.com","Type":"Private","Service Capability Level":"Level 2","Capacity":"60","COVID Capacity\n(Y/N)":"","Notes":""},
{"DOH code":"5122","Hospital":"Jesus Nazarene General Hospital","HospitalID\nDoH Short Code":"5122","LATITUDE":"16.014635","LONGITUDE":"120.232419","Region":"Region 1","Province":"Pangasinan","Address":"Vicente Solis St., Lingayen, Pangasinan","Contact":"075-5425758 / 6321467 / 6531457 fax / jngh08@yahoo.com","Type":"Private","Service Capability Level":"Level 2","Capacity":"30","COVID Capacity\n(Y/N)":"","Notes":""},
{"DOH code":"4701","Hospital":"Dagupan Doctors Villaflor Memorial Hospital, Inc.","HospitalID\nDoH Short Code":"4701","LATITUDE":"16.037521","LONGITUDE":"120.346883","Region":"Region 1","Province":"Pangasinan","Address":"McArthur Highway, Mayombo District, Dagupan City, Pangasinan","Contact":"5232222 / 5220811","Type":"Private","Service Capability Level":"Level 2","Capacity":"100","COVID Capacity\n(Y/N)":"","Notes":""},
{"DOH code":"4232","Hospital":"SENOR STO. NINO HOSPITAL, INC.","HospitalID\nDoH Short Code":"4232","LATITUDE":"15.814518","LONGITUDE":"120.475824","Region":"Region 3","Province":"Pangasinan","Address":"J. Luna, Bayambang, Luzon","Contact":"045-9340176 / 9340806 fax / ssnh_agnes@yahoo.com","Type":"Private","Service Capability Level":"Level 2","Capacity":"40","COVID Capacity\n(Y/N)":"","Notes":""},
{"DOH code":"373","Hospital":"Luzon Medical Center, Inc.","HospitalID\nDoH Short Code":"373","LATITUDE":"16.03359","LONGITUDE":"120.332355","Region":"Region 1","Province":"Pangasinan","Address":"329 McArthur Highway, Brgy. Tapuac, Dagupan City","Contact":"075-5291954 / 6568965 fax / luzonmedical@gmail.com","Type":"Private","Service Capability Level":"Level 2","Capacity":"70","COVID Capacity\n(Y/N)":"","Notes":""},
{"DOH code":"5789","Hospital":"The Medical City Pangasinan","HospitalID\nDoH Short Code":"5789","LATITUDE":"16.046264","LONGITUDE":"120.340525","Region":"Region 1","Province":"Pangasinan","Address":"Nable St., Dagupan City, Pangasinan","Contact":"075-6152273","Type":"Private","Service Capability Level":"Level 2","Capacity":"75","COVID Capacity\n(Y/N)":"","Notes":""},
{"DOH code":"2162","Hospital":"Cagayan Valley Medical Center","HospitalID\nDoH Short Code":"2162","LATITUDE":"17.656393","LONGITUDE":"121.746703","Region":"Region 2","Province":"Cagayan","Address":"Maharlika Highway, Carig Sur, Tuguegarao City, Cagayan","Contact":"078-3020000/3043789 / cvmcr2@gmail.com","Type":"Public - DOH Retained","Service Capability Level":"Level 3","Capacity":"500","COVID Capacity\n(Y/N)":"","Notes":"OPLAN Metro-Yakal-Plus - Metro manila Earthquake Contingency Plan"},
{"DOH code":"8483","Hospital":"Dr. Ronald P. Guzman Medical Center, Inc.","HospitalID\nDoH Short Code":"8483","LATITUDE":"17.649789","LONGITUDE":"121.755961","Region":"Region 2","Province":"Cagayan","Address":"Enrile Blvd., Carig, Tuguegarao City, Cagayan","Contact":"078-3040925-26 / ao_rppgmc@yahoo.com","Type":"Private","Service Capability Level":"Level 2","Capacity":"100","COVID Capacity\n(Y/N)":"","Notes":""},
{"DOH code":"5071","Hospital":"St. Paul Hospital of Tuguegarao, Inc.","HospitalID\nDoH Short Code":"5071","LATITUDE":"17.614009","LONGITUDE":"121.707375","Region":"Region 2","Province":"Cagayan","Address":"Ugac Highway, Tuguegarao, Cagayan","Contact":"sph_tuguegarao@yahoo.com.ph","Type":"Private","Service Capability Level":"Level 2","Capacity":"250","COVID Capacity\n(Y/N)":"","Notes":""},
{"DOH code":"no data","Hospital":"Grupo Medico De Dios, Inc.","HospitalID\nDoH Short Code":"no data","LATITUDE":"18.260912","LONGITUDE":"121.70313","Region":"Region 2","Province":"Cagayan","Address":"Bulala, Camalaniugan, Cagayan","Contact":"0917-8810616 / 0917-5825518 / grupomedicodedios.ph@gmail.com","Type":"Private","Service Capability Level":"Level 2","Capacity":"33","COVID Capacity\n(Y/N)":"","Notes":""},
{"DOH code":"32023","Hospital":"Divine Mercy Wellness and Medical Center, Inc.","HospitalID\nDoH Short Code":"32023","LATITUDE":"17.611354","LONGITUDE":"121.727277","Region":"Region 2","Province":"Cagayan","Address":"Arellano cor. Burgos St., Centro 06, Tuguegarao City, Cagayan","Contact":"078-8444624 / a.dmwc@yahoo.com","Type":"Private","Service Capability Level":"Level 2","Capacity":"100","COVID Capacity\n(Y/N)":"","Notes":""},
{"DOH code":"3313","Hospital":"Southern Isabela Medical Center","HospitalID\nDoH Short Code":"3313","LATITUDE":"16.680027","LONGITUDE":"121.546576","Region":"Region 2","Province":"Isabela","Address":"Cor. Recto Ave., Zamora St., Rosario, Santiago City, Isabela","Contact":"078-3050459 / southern_isabela09@yahoo.com","Type":"Public - DOH Retained","Service Capability Level":"Level 2","Capacity":"200","COVID Capacity\n(Y/N)":"","Notes":""},
{"DOH code":"6497","Hospital":"De Vera's Medical Center, Inc.","HospitalID\nDoH Short Code":"6497","LATITUDE":"16.694988","LONGITUDE":"121.5539","Region":"Region 2","Province":"Isabela","Address":"City Road, Calao East, Santiago City, Isabela","Contact":"078-3052787 / 3052802 fax / bona_dvgh@yahoo.com","Type":"Private","Service Capability Level":"Level 2","Capacity":"50","COVID Capacity\n(Y/N)":"","Notes":""},
{"DOH code":"34465","Hospital":"Santiago Medical City","HospitalID\nDoH Short Code":"34465","LATITUDE":"16.728211","LONGITUDE":"121.549504","Region":"Region 2","Province":"Isabela","Address":"Purok 7, Provincial Road, Rizal, Santiago City, Isabela","Contact":"\n(078) 353 9999","Type":"Private","Service Capability Level":"Level 2","Capacity":"109","COVID Capacity\n(Y/N)":"","Notes":""},
{"DOH code":"2262","Hospital":"Callang General Hospital and Medical Center, Inc.","HospitalID\nDoH Short Code":"2262","LATITUDE":"16.692513","LONGITUDE":"121.550464","Region":"Region 2","Province":"Isabela","Address":"Judge Taguinod St., Centro East, Santiago City, Isabela","Contact":"078-3050734 / 3051356 fax / callang_hospital@yahoo.com","Type":"Private","Service Capability Level":"Level 2","Capacity":"55","COVID Capacity\n(Y/N)":"","Notes":""},
{"DOH code":"1688","Hospital":"Adventist Hospital-Santiago City, Inc.","HospitalID\nDoH Short Code":"1688","LATITUDE":"16.697168","LONGITUDE":"121.566951","Region":"Region 2","Province":"Isabela","Address":"Purok 5, National Highway, Mabini, Santiago City, Isabela","Contact":"078-3050130 / 3050161 fax / jto_21@yahoo.com","Type":"Private","Service Capability Level":"Level 2","Capacity":"50","COVID Capacity\n(Y/N)":"","Notes":""},
{"DOH code":"30152","Hospital":"Isabela United Doctors Medical Center, Inc.","HospitalID\nDoH Short Code":"30152","LATITUDE":"16.948657","LONGITUDE":"121.771717","Region":"Region 2","Province":"Isabela","Address":"National Highway, Brgy. Cabaruan, Cauayan, Isabela","Contact":"(078) 652 4177/ \nwww.iudmc.com","Type":"Private","Service Capability Level":"Level 2/3","Capacity":"","COVID Capacity\n(Y/N)":"","Notes":""},
{"DOH code":"5566","Hospital":"PLTC, Inc., Luis A. Tiam Medical Center","HospitalID\nDoH Short Code":"5566","LATITUDE":"16.534821","LONGITUDE":"121.224255","Region":"Region 2","Province":"Nueva Vizcaya","Address":"Brgy. Bascaran, Solano, Nueva Vizcaya","Contact":"0917-5504033 / pltci_luistiaam.medicalcenter@yahoo.com","Type":"Private","Service Capability Level":"Level 2","Capacity":"60","COVID Capacity\n(Y/N)":"","Notes":""},
{"DOH code":"2703","Hospital":"Region II Trauma and Medical Center","HospitalID\nDoH Short Code":"2703","LATITUDE":"16.483237","LONGITUDE":"121.134277","Region":"Region 2","Province":"Nueva Vizcaya","Address":"Magsaysay, Bayombong, Nueva Vizcaya, National Highway, Brgy. Roxas, Solano, Nueva Vizcaya","Contact":"078-8053561-64 / 8053560 fax / veteransregionalhospital@yahoo.com / vrhro21995@gmail.com","Type":"Public - DOH Retained","Service Capability Level":"Level 2","Capacity":"200","COVID Capacity\n(Y/N)":"","Notes":""},
{"DOH code":"no data","Hospital":"Salubris Medical Center","HospitalID\nDoH Short Code":"no data","LATITUDE":"16.521954","LONGITUDE":"121.193767","Region":"Region 2","Province":"Nueva Vizcaya","Address":"National Highway, Brgy. Roxas, Solano, Nueva Vizcaya","Contact":"0917-5837600 / 078-3210374 / salubrismedical@gmail.com","Type":"Private","Service Capability Level":"Level 2","Capacity":"100","COVID Capacity\n(Y/N)":"","Notes":""},
{"DOH code":"427","Hospital":"Bataan Provincial Hospital","HospitalID\nDoH Short Code":"427","LATITUDE":"14.678424","LONGITUDE":"120.530383","Region":"Region 3","Province":"Bataan","Address":"Manahan St., Tenejero, Balanga City, Bataan","Contact":"047-2373635 / bgh_bataan2005@yahoo.com.ph","Type":"Public - DOH Retained","Service Capability Level":"Level 2","Capacity":"214","COVID Capacity\n(Y/N)":"","Notes":""},
{"DOH code":"38108","Hospital":"CENTRO MEDICO DE SANTISIMO ROSARIO, INC.","HospitalID\nDoH Short Code":"38108","LATITUDE":"14.672724","LONGITUDE":"120.524383","Region":"Region 3","Province":"Bataan","Address":"Lot 1 PSD 25823 Roman Super Highway, Brgy. Tenejero, Balanga City, Bataan","Contact":"0917 628 2813","Type":"Private","Service Capability Level":"Level 2/3","Capacity":"","COVID Capacity\n(Y/N)":"","Notes":""},
{"DOH code":"3008","Hospital":"Bataan Doctors Hospital and Medical Center, Inc.","HospitalID\nDoH Short Code":"3008","LATITUDE":"14.682842","LONGITUDE":"120.542745","Region":"Region 3","Province":"Bataan","Address":"Cuadermo Street, Dona Francisco Subdivision, Balanga City, Bataan","Contact":"047-2370164 / batdocs@yahoo.com","Type":"Private","Service Capability Level":"Level 2","Capacity":"100","COVID Capacity\n(Y/N)":"","Notes":""},
{"DOH code":"4569","Hospital":"Bataan St. Joseph Hospital & Medical Center Corp.","HospitalID\nDoH Short Code":"4569","LATITUDE":"14.681505","LONGITUDE":"120.541596","Region":"Region 3","Province":"Bataan","Address":"Don Manuel Banzon Ave., Brgy. Dona Francisca, Balanga City, Bataan","Contact":"047-2372009 / bsjb_72@yahoo.com","Type":"Private","Service Capability Level":"Level 2","Capacity":"50","COVID Capacity\n(Y/N)":"","Notes":""},
{"DOH code":"4757","Hospital":"Premiere General Hospital of Nueva Ecija, Baler Aurora, inc.","HospitalID\nDoH Short Code":"4757","LATITUDE":"15.748011","LONGITUDE":"121.514109","Region":"Region 3","Province":"Aurora","Address":"Brgy. Suklayin, Baler, Aurora","Contact":"0998-9607195 / premieregeneral@yahoo.com","Type":"Private","Service Capability Level":"Level 2","Capacity":"30","COVID Capacity\n(Y/N)":"","Notes":""},
{"DOH code":"2949","Hospital":"Sta. Clara de Montefalco Medical Center","HospitalID\nDoH Short Code":"2949","LATITUDE":"14.749146","LONGITUDE":"120.971665","Region":"Region 3","Province":"Bulacan","Address":"KM 20, North Diversion Service Road, Malhacan, Meycauayan City, Bulacan","Contact":"02-9353797 / 044-8963652 / 7699511 fax / staclarademontefalco@yahoo.com","Type":"Private","Service Capability Level":"Level 2","Capacity":"100","COVID Capacity\n(Y/N)":"","Notes":""},
{"DOH code":"5565","Hospital":"ST. PAUL HOSPITAL BULACAN, INC.","HospitalID\nDoH Short Code":"5565","LATITUDE":"14.79577","LONGITUDE":"120.92871","Region":"Region 3","Province":"Bulacan","Address":"187 J.P. Rizal St., Binang 2nd, Bocaue, Bulacan","Contact":"044-6925964 / 2786123 / 6825964 fax / sphbulacan_inc@yahoo.com","Type":"Private","Service Capability Level":"Level 2","Capacity":"50","COVID Capacity\n(Y/N)":"","Notes":""},
{"DOH code":"23616","Hospital":"Meycauayan Doctors Hospital and Medical Center, Inc.","HospitalID\nDoH Short Code":"23616","LATITUDE":"14.726734","LONGITUDE":"120.959827","Region":"Region 3","Province":"Bulacan","Address":"KM 18, McArthur Highway, Banga, Meycauayan City, Bulacan","Contact":"044-7696450 / meycauayandoctorsh@yahoo.com","Type":"Private","Service Capability Level":"Level 2","Capacity":"80","COVID Capacity\n(Y/N)":"","Notes":""},
{"DOH code":"31937","Hospital":"Marymount Hospital, Inc.","HospitalID\nDoH Short Code":"31937","LATITUDE":"14.764478","LONGITUDE":"120.988833","Region":"Region 3","Province":"Bulacan","Address":"C.P. Soriente Bldg., Brgy. Camalig, Meycauayan, Bulacan","Contact":"044-6611049 / marymount_hospital@yahoo.com.ph","Type":"","Service Capability Level":"Level 2","Capacity":"100","COVID Capacity\n(Y/N)":"","Notes":""},
{"DOH code":"25676","Hospital":"GRACE GENERAL HOSPITAL, INC.","HospitalID\nDoH Short Code":"25676","LATITUDE":"14.80592","LONGITUDE":"121.06825","Region":"Region 3","Province":"Bulacan","Address":"B1 L2 Quirino Highway Ext., Brgy. Mulawin Francsico Homes, City of San Jose Del Monte, Bulacan","Contact":"02-5194838 / gyrodriguezmd05@gmail.com","Type":"Private","Service Capability Level":"Level 2","Capacity":"60","COVID Capacity\n(Y/N)":"","Notes":""},
{"DOH code":"31929","Hospital":"Allied Care Experts (ACE) Medical Center - Baliwag, Inc.","HospitalID\nDoH Short Code":"31929","LATITUDE":"14.952762","LONGITUDE":"120.884448","Region":"Region 3","Province":"Bulacan","Address":"Lot 2975 C-1, Dona Remedios Trinidad Highway, Pinagbarilan, Baliwag, Bulacan","Contact":"044-8161000 / katherineyuelizon@yahoo.com / acemedicalcenterbaliwag@gmail.com","Type":"Private","Service Capability Level":"Level 2","Capacity":"100","COVID Capacity\n(Y/N)":"","Notes":""},
{"DOH code":"34463","Hospital":"QUALIMED HEALTH NETWORK SJDM","HospitalID\nDoH Short Code":"34463","LATITUDE":"14.78837","LONGITUDE":"121.077043","Region":"Region 3","Province":"Bulacan","Address":"Altaraza, Tungkong Mangga, City of San Jose Del Monte, Bulacan","Contact":"044-3070000 / sjdm.hospital@qualimed.com.ph","Type":"Private","Service Capability Level":"Level 2","Capacity":"105","COVID Capacity\n(Y/N)":"","Notes":""},
{"DOH code":"6868","Hospital":"MARCELO-PADILLA CHILDRENS AND MEDICAL HOSPITAL CORPORATION","HospitalID\nDoH Short Code":"6868","LATITUDE":"14.88876","LONGITUDE":"120.86666","Region":"Region 3","Province":"Bulacan","Address":"#393 Banga I, Plaridel, Bulacan","Contact":"044-7950119 loc 109 / 0922-8316500","Type":"Private","Service Capability Level":"Level 2","Capacity":"37","COVID Capacity\n(Y/N)":"","Notes":""},
{"DOH code":"5417","Hospital":"Our Lady of Mercy General Hospital, Inc.","HospitalID\nDoH Short Code":"5417","LATITUDE":"14.894077","LONGITUDE":"120.866054","Region":"Region 3","Province":"Bulacan","Address":"DRT Highway, Longos, Pulilan, Bulacan","Contact":"044-7952505/ 7953969 fax / olmghospital@yahoo.com.ph","Type":"Private","Service Capability Level":"Level 2","Capacity":"30","COVID Capacity\n(Y/N)":"","Notes":""},
{"DOH code":"4460","Hospital":"Bulacan Medical Center","HospitalID\nDoH Short Code":"4460","LATITUDE":"14.85868","LONGITUDE":"120.81648","Region":"Region 3","Province":"Bulacan","Address":"Mojon Road, Malolos City, Bulacan","Contact":"pho_bulacan@yahoo.com","Type":"Public","Service Capability Level":"Level 2/3","Capacity":"300","COVID Capacity\n(Y/N)":"","Notes":""},
{"DOH code":"5986","Hospital":"Nazarenus College and Hospital Foundation, Inc.","HospitalID\nDoH Short Code":"5986","LATITUDE":"14.752083","LONGITUDE":"120.955181","Region":"Region 3","Province":"Bulacan","Address":"#133 McArthur Highway, Saluysoy, Meycauayan, Bulacan","Contact":"044-7115429 / 8154670 fax / ncfh79@gmail.com","Type":"Private","Service Capability Level":"level 2","Capacity":"100","COVID Capacity\n(Y/N)":"","Notes":""},
{"DOH code":"32086","Hospital":"SKYLINE HOSPITAL AND MEDICAL CENTER","HospitalID\nDoH Short Code":"32086","LATITUDE":"14.79833","LONGITUDE":"121.07061","Region":"Region 3","Province":"Bulacan","Address":"Skyline Drive cor. Quirino Highwy, Brgy.\nTugkong Manga, City of San Jose Del Monte,\nBulacan","Contact":"02-2636700 / 8157770 / sham2015er@gmail.com / hrm.shmc@gmail.com","Type":"Private","Service Capability Level":"Level 2","Capacity":"100","COVID Capacity\n(Y/N)":"","Notes":""},
{"DOH code":"5617","Hospital":"Sacred Heart Hospital of Malolos, Inc.","HospitalID\nDoH Short Code":"5617","LATITUDE":"14.851587","LONGITUDE":"120.817811","Region":"Region 3","Province":"Bulacan","Address":"Dr. Peralta St., Guinhawa Subdivision, Malolos City, Bulacan","Contact":"044-7944744 loc 457 / 7944777 loc 428 fax / shhmalolos@yahoo.com","Type":"Private","Service Capability Level":"Level 2","Capacity":"72","COVID Capacity\n(Y/N)":"","Notes":""},
{"DOH code":"4636","Hospital":"WESLEYAN UNIVERSITY - PHILIPPINES","HospitalID\nDoH Short Code":"4636","LATITUDE":"15.48467","LONGITUDE":"120.97554","Region":"Region 3","Province":"Cabanatuan","Address":"Tandang Sora St., Mabini Extension, Cabanatuan City","Contact":"044-4634735 / 4636628 fax / wuphospital@yahoo.com","Type":"Private","Service Capability Level":"Level 2","Capacity":"100","COVID Capacity\n(Y/N)":"","Notes":""},
{"DOH code":"1892","Hospital":"IMMACULATE CONCEPTION MEDICAL CENTER OF CENTRAL LUZON, INC.","HospitalID\nDoH Short Code":"1892","LATITUDE":"15.4686986","LONGITUDE":"120.9632626","Region":"Region 3","Province":"Cabanatuan","Address":"Circumferential Road, San Juan Accfa, Cabanatuan City","Contact":"044-9400300 / 9404262 fax / immaculateconceptionmc@yahoo.com","Type":"Private","Service Capability Level":"Level 2","Capacity":"76","COVID Capacity\n(Y/N)":"","Notes":""},
{"DOH code":"399","Hospital":"NUEVA ECIJA DOCTORS HOSPITAL, INC.","HospitalID\nDoH Short Code":"399","LATITUDE":"15.45784","LONGITUDE":"120.94873","Region":"Region 3","Province":"Cabanatuan","Address":"Maharlika Highway, Sumacab Este, Cabanatuan City","Contact":"044-9400176 / 9406890 fax / nedhi_69@yahoo.com / nedh.secretary@gmail.com","Type":"Private","Service Capability Level":"Level 3","Capacity":"133","COVID Capacity\n(Y/N)":"","Notes":""},
{"DOH code":"269","Hospital":"TARLAC PROVINCIAL HOSPITAL","HospitalID\nDoH Short Code":"269","LATITUDE":"15.47466","LONGITUDE":"120.58666","Region":"Region 3","Province":"Tarlac","Address":"Hospital Drive, San Vicente, Tarlac City","Contact":"4918970 loc 214 / 045-9821306 fax / tarlacprovincialhospital@yahoo.com","Type":"Public","Service Capability Level":"Level 3","Capacity":"408","COVID Capacity\n(Y/N)":"","Notes":""},
{"DOH code":"3833","Hospital":"TALON GENERAL HOSPITAL","HospitalID\nDoH Short Code":"3833","LATITUDE":"15.49086","LONGITUDE":"120.59155","Region":"Region 3","Province":"Tarlac","Address":"F. Tanedo St., Poblacion, Tarlac City","Contact":"045-98220239 / 9821400 / 9825415 / 9623889 fax","Type":"Private","Service Capability Level":"Level 2","Capacity":"50","COVID Capacity\n(Y/N)":"","Notes":""},
{"DOH code":"37096","Hospital":"LOVING MOTHER GENERAL HOSPITAL AND DIAGNOSTIC CENTER INC.","HospitalID\nDoH Short Code":"37096","LATITUDE":"15.49279","LONGITUDE":"120.59309","Region":"Region 3","Province":"Tarlac","Address":"Block 6, F. Tanedo, San Nicolas, Tarlac City","Contact":"045-4708502-03","Type":"Private","Service Capability Level":"Level 2","Capacity":"100","COVID Capacity\n(Y/N)":"","Notes":""},
{"DOH code":"393","Hospital":"RAMOS GENERAL HOSPITAL","HospitalID\nDoH Short Code":"393","LATITUDE":"15.485018","LONGITUDE":"120.593119","Region":"Region 3","Province":"Tarlac","Address":"P. Hilario Street, Ligtasan","Contact":"045-9820542 / 9827074 fax / rgh_tarlac@yahoo.com","Type":"Private","Service Capability Level":"Level 2","Capacity":"90","COVID Capacity\n(Y/N)":"","Notes":""},
{"DOH code":"6688","Hospital":"CENTRAL LUZON DOCTORS' HOSPITAL, INC.","HospitalID\nDoH Short Code":"6688","LATITUDE":"15.478189","LONGITUDE":"120.58695","Region":"Region 3","Province":"Tarlac","Address":"Hospital Drive, San Vicente, Tarlac City","Contact":"045-9820806 / 9824430 fax / mail@cldh.com.ph","Type":"Private","Service Capability Level":"Level 3","Capacity":"175","COVID Capacity\n(Y/N)":"","Notes":""},
{"DOH code":"2882","Hospital":"JECSONS MEDICAL CENTER","HospitalID\nDoH Short Code":"2882","LATITUDE":"15.491021","LONGITUDE":"120.597492","Region":"Region 3","Province":"Tarlac","Address":"McArthur Highway, Brgy. San Nicolas, Tarlac City","Contact":"045-9825501 / 9823510 fax / jecsons03@yahoo.com","Type":"Private","Service Capability Level":"Level 2","Capacity":"180","COVID Capacity\n(Y/N)":"","Notes":""},
{"DOH code":"35325","Hospital":"CAPAS MEDICAL CENTER","HospitalID\nDoH Short Code":"35325","LATITUDE":"15.350273","LONGITUDE":"120.5929782","Region":"Region 3","Province":"Tarlac","Address":"McArthur Highway, Brgy. Sto. Domingo 2nd, Capas, Tarlac","Contact":"6150430 / 0995-3737326 / 0916-4392894 / capasmedicalcenter2017@gmail.com","Type":"Private","Service Capability Level":"Level 2","Capacity":"50","COVID Capacity\n(Y/N)":"","Notes":""},
{"DOH code":"269","Hospital":"Tarlac Provincial Hospital","HospitalID\nDoH Short Code":"269","LATITUDE":"15.474723","LONGITUDE":"120.586797","Region":"Region 3","Province":"Tarlac","Address":"KM 144, National Highway, Brgy. Samput, Paniqui, Tarlac","Contact":"4918970 loc 214 / 045-9821306 fax / tarlacprovincialhospital@yahoo.com","Type":"Public","Service Capability Level":"Level 3","Capacity":"408","COVID Capacity\n(Y/N)":"","Notes":""},
{"DOH code":"3960","Hospital":"PREMIERE MEDICAL CENTER","HospitalID\nDoH Short Code":"3960","LATITUDE":"15.50786","LONGITUDE":"120.96712","Region":"Region 3","Province":"Nueva Ecija","Address":"Maharlika Highway, Daan Sarile, Cabanatuan City, Nueva Ecija","Contact":"044-4637845-49 / 4635868 fax / premiere_medcenter@yahoo.com.ph","Type":"Private","Service Capability Level":"Level 3","Capacity":"150","COVID Capacity\n(Y/N)":"","Notes":""},
{"DOH code":"392","Hospital":"NUEVA ECIJA GOOD SAMARITAN HEALTH SYSTEM, INC. (EXT.)","HospitalID\nDoH Short Code":"392","LATITUDE":"15.307003","LONGITUDE":"120.94624","Region":"Region 3","Province":"Nueva Ecija","Address":"San Vicente, Bucana, Gapan City, Nueva Ecija","Contact":"044-4631582-85 / 4643969 fax / negoodsamaritanhospital@gmail.com","Type":"Private","Service Capability Level":"Level 2","Capacity":"76","COVID Capacity\n(Y/N)":"","Notes":""},
{"DOH code":"276","Hospital":"Dr. Paulino J. Garcia Memorial Research and Medical Center","HospitalID\nDoH Short Code":"276","LATITUDE":"15.489665","LONGITUDE":"120.9729","Region":"Region 3","Province":"Nueva Ecija","Address":"Cabanatuan City","Contact":"dr_hubertolapuz@yahoo.com","Type":"Public - DOH Retained","Service Capability Level":"Level 3","Capacity":"400","COVID Capacity\n(Y/N)":"","Notes":""},
{"DOH code":"4699","Hospital":"St. Raphael Foundation & Medical Center, Inc.","HospitalID\nDoH Short Code":"4699","LATITUDE":"15.189468","LONGITUDE":"120.583613","Region":"Region 3","Province":"Pampanga","Address":"McArthur Highway, Brgy. Camachiles, Dau, Mabalacat, Pampanga","Contact":"045-8922688 / 3311288 / 3311027 fax / straphaelmedicalcenter_srtmcl@yahoo.com","Type":"Private","Service Capability Level":"Level 2","Capacity":"80","COVID Capacity\n(Y/N)":"","Notes":""},
{"DOH code":"34411","Hospital":"Pampanga Premier Medical Center Inc.","HospitalID\nDoH Short Code":"34411","LATITUDE":"14.960414","LONGITUDE":"120.759068","Region":"Region 3","Province":"Pampanga","Address":"McArthur Highway, Brgy. Sampaloc, Apalit, Pampanga","Contact":"045-4250084","Type":"Private","Service Capability Level":"Level 2","Capacity":"66","COVID Capacity\n(Y/N)":"","Notes":""},
{"DOH code":"4700","Hospital":"Angeles Medical Center, Inc.","HospitalID\nDoH Short Code":"4700","LATITUDE":"15.1412652","LONGITUDE":"120.5893314","Region":"Region 3","Province":"Pampanga","Address":"#641 Rizal St., Angeles City","Contact":"045-8873139 / 3234448 fax / amc_inc72@yahoo.com","Type":"Private","Service Capability Level":"Level 2","Capacity":"100","COVID Capacity\n(Y/N)":"","Notes":""},
{"DOH code":"4225","Hospital":"PAMPANGA MEDICAL SPECIALIST HOSPITAL, INC","HospitalID\nDoH Short Code":"4225","LATITUDE":"14.973085","LONGITUDE":"120.606385","Region":"Region 3","Province":"Pampanga","Address":"Km. 80, Jose Abad Santos Ave., San Antonio, Guagua","Contact":"pms_hospital@yahoo.com","Type":"Private","Service Capability Level":"Level 2","Capacity":"80","COVID Capacity\n(Y/N)":"","Notes":""},
{"DOH code":"2740","Hospital":"Angeles University Foundation Medical Center","HospitalID\nDoH Short Code":"2740","LATITUDE":"15.145184","LONGITUDE":"120.59525","Region":"Region 3","Province":"Pampanga","Address":"McArthur Highway, Angeles City","Contact":"045-6252999 / 6252932 fax / md_aufmc@yahoo.com","Type":"Private","Service Capability Level":"Level 3","Capacity":"170","COVID Capacity\n(Y/N)":"","Notes":""},
{"DOH code":"2820","Hospital":"Dr. Amando L. Garcia Medical Center, Inc.","HospitalID\nDoH Short Code":"2820","LATITUDE":"15.142288","LONGITUDE":"120.589109","Region":"Region 3","Province":"Pampanga","Address":"648 Rizal St., Agapito Del Rosario, Angeles City","Contact":"8882571 / 3224847 / 8885573 / dagmc_1971@yahoo.com / dalgmci1971@gmail.com","Type":"Private","Service Capability Level":"Level 2","Capacity":"100","COVID Capacity\n(Y/N)":"","Notes":""},
{"DOH code":"5661","Hospital":"SACRED HEART MEDICAL CENTER","HospitalID\nDoH Short Code":"5661","LATITUDE":"15.125451","LONGITUDE":"120.59846","Region":"Region 3","Province":"Pampanga","Address":"McArthur Highway, Brgy. Sto. Domingo, Angeles City","Contact":"045-6245606-12 / 6245335 fax / sacredheartmedicalcenter@yahoo.com","Type":"Private","Service Capability Level":"Level 2","Capacity":"75","COVID Capacity\n(Y/N)":"","Notes":""},
{"DOH code":"5085","Hospital":"ST. CATHERINE OF ALEXANDRIA\nFOUNDATION & MEDICAL CENTER","HospitalID\nDoH Short Code":"5085","LATITUDE":"15.13516","LONGITUDE":"120.585132","Region":"Region 3","Province":"Pampanga","Address":"#4163 Rizal Street Ext., Cut-cut, Angeles City","Contact":"045-8887209 / 32222941 / 3224256 fax / scafmc_a@yahoo.com / hr.scafmc@gmail.com","Type":"Private","Service Capability Level":"Level 2","Capacity":"40","COVID Capacity\n(Y/N)":"","Notes":""},
{"DOH code":"38109","Hospital":"Philippine Rehabilitation Institute (PRI)","HospitalID\nDoH Short Code":"38109","LATITUDE":"15.148593","LONGITUDE":"120.576815","Region":"Region 3","Province":"Pampanga","Address":"Blk 6, Lot 11, Arayat Blvd., Brgy. Pampang, Angeles City","Contact":"0917-6270646/ 0917-3167992 / primedctr10@yahoo.com","Type":"Private","Service Capability Level":"Level 2","Capacity":"108","COVID Capacity\n(Y/N)":"","Notes":""},
{"DOH code":"23754","Hospital":"OUR LADY OF MT. CARMEL MEDICAL CENTER-CLARK, INC.","HospitalID\nDoH Short Code":"23754","LATITUDE":"15.182483","LONGITUDE":"120.529871","Region":"Region 3","Province":"Pampanga","Address":"Ninoy Aquino Avenue, Clark Special Economic Zone, Clarkfield","Contact":"045-4990103 / 4991446 / mtcarmelclark@gmail.com","Type":"Private","Service Capability Level":"Level 2","Capacity":"50","COVID Capacity\n(Y/N)":"","Notes":""},
{"DOH code":"4078","Hospital":"San Fernando Hospital","HospitalID\nDoH Short Code":"4078","LATITUDE":"15.043734","LONGITUDE":"120.675018","Region":"Region 3","Province":"Pampanga","Address":"McArthur Highway, San Fernando","Contact":"045-9615105 / 4098462 fax / sfhospital@yahoo.com","Type":"Private","Service Capability Level":"Level 2","Capacity":"90","COVID Capacity\n(Y/N)":"","Notes":""},
{"DOH code":"5093","Hospital":"V.L. MAKABALI MEMORIAL HOSPITAL, INC","HospitalID\nDoH Short Code":"5093","LATITUDE":"15.03204","LONGITUDE":"120.688853","Region":"Region 3","Province":"Pampanga","Address":"B. Mendoza Street, Sto. Rosario, City of San Fernando","Contact":"045-9612234 / 9612442 fax / makabali_hospital@yahoo.com","Type":"Private","Service Capability Level":"Level 2","Capacity":"97","COVID Capacity\n(Y/N)":"","Notes":""},
{"DOH code":"4330","Hospital":"OUR LADY OF MT. CARMEL MEDICAL CENTER, INC.","HospitalID\nDoH Short Code":"4330","LATITUDE":"15.096173","LONGITUDE":"120.624196","Region":"Region 3","Province":"Pampanga","Address":"Km. 78 Mc-Arthur Hi-way, Brgy. Saguin, City of San Fernando, Pampanga","Contact":"045-4352420 / 4551416 fax / olmcmc@yahoo.com","Type":"Private","Service Capability Level":"Level 3","Capacity":"108","COVID Capacity\n(Y/N)":"","Notes":""},
{"DOH code":"3314","Hospital":"MOTHER TERESA OF CALCUTTA MEDICAL CENTER","HospitalID\nDoH Short Code":"3314","LATITUDE":"15.065753","LONGITUDE":"120.653799","Region":"Region 3","Province":"Pampanga","Address":"McArthur Highway Brgy. Maimpis, City of San Fernando","Contact":"045-8614607-11 / 4552135 fax / lacsonmalu@yahoo.com / lavermemanguerra@yahoo.com","Type":"Private","Service Capability Level":"Level 2","Capacity":"172","COVID Capacity\n(Y/N)":"","Notes":""},
{"DOH code":"5563","Hospital":"The Medical City Clark, Inc.","HospitalID\nDoH Short Code":"5563","LATITUDE":"15.178401","LONGITUDE":"120.571854","Region":"Region 3","Province":"Pampanga","Address":"100 Gatwick Gateway Sabah Al-Ahmad Global Gateway Logistics City, Industrial Estate 5, Clark Freeport Zone","Contact":"045-3008888","Type":"Private","Service Capability Level":"Level 2","Capacity":"100","COVID Capacity\n(Y/N)":"","Notes":""},
{"DOH code":"32094","Hospital":"FLORIDABLANCA DOCTORS HOSPITAL, INC.","HospitalID\nDoH Short Code":"32094","LATITUDE":"14.986878","LONGITUDE":"120.54828","Region":"Region 3","Province":"Pampanga","Address":"Valdez, Floridablanca","Contact":"0908-8636311 / 6242298 / 6242297 fax / fdhi.jette@gmail.com","Type":"Private","Service Capability Level":"Level 2","Capacity":"100","COVID Capacity\n(Y/N)":"","Notes":""},
{"DOH code":"271","Hospital":"Jose B. Lingad Memorial Regional Hospital","HospitalID\nDoH Short Code":"271","LATITUDE":"15.034472","LONGITUDE":"120.684486","Region":"Region 3","Province":"Pampanga","Address":"Dolores, City of San Fernando, Pampanga","Contact":"045-9613544 / 9613437 / jbmgh_2012@yahoo.com.ph","Type":"Public - DOH Retained","Service Capability Level":"Level 3","Capacity":"250","COVID Capacity\n(Y/N)":"","Notes":""},
{"DOH code":"7694","Hospital":"OUR LADY OF LOURDES INTERNATIONAL\nMEDICAL CENTER, INC.","HospitalID\nDoH Short Code":"7694","LATITUDE":"14.84751","LONGITUDE":"120.26903","Region":"Region 3","Province":"Zambales","Address":"#2 National Highway, Brgy. Baretto, Olongapo City","Contact":"047-2229011-13 / 2229012-13 loc 160 / mail@ollimc.com","Type":"Private","Service Capability Level":"Level 2","Capacity":"99","COVID Capacity\n(Y/N)":"","Notes":""},
{"DOH code":"23755","Hospital":"Allied Care Experts (ACE) Medical Center - Baypointe, Inc.","HospitalID\nDoH Short Code":"23755","LATITUDE":"14.82392","LONGITUDE":"120.27229","Region":"Region 3","Province":"Zambales","Address":"Block 8, Lot 1A and 1B Dewey Ave., CBD Area, Subic Bay Freeport Zone","Contact":"047-2506070 / 2500534 fax","Type":"Private","Service Capability Level":"Level 2","Capacity":"87","COVID Capacity\n(Y/N)":"","Notes":""},
{"DOH code":"4704","Hospital":"Pres. Ramon Magsaysay Memorial Hospital","HospitalID\nDoH Short Code":"4704","LATITUDE":"15.316109","LONGITUDE":"119.991463","Region":"Region 3","Province":"Zambales","Address":"Brgy. Palanginan, Iba","Contact":"047-8117212 / 6021541 / pho.zambales@yahoo.com","Type":"Public","Service Capability Level":"Level 2","Capacity":"150","COVID Capacity\n(Y/N)":"","Notes":""},
{"DOH code":"272","Hospital":"James L. Gordon Memorial Hospital","HospitalID\nDoH Short Code":"272","LATITUDE":"14.827112","LONGITUDE":"120.280038","Region":"Region 3","Province":"Zambales","Address":"No. 1 Perimeter Road, NewAsinan, Olongapo City","Contact":"047-6021229 to 1230 / 6021228 / 2222232 fax / jlgordonhospital@gmail.com","Type":"Public","Service Capability Level":"Level 3","Capacity":"270","COVID Capacity\n(Y/N)":"","Notes":""},
{"DOH code":"2180","Hospital":"George Dewey Medical & Wellness Center","HospitalID\nDoH Short Code":"2180","LATITUDE":"14.77459","LONGITUDE":"120.30775","Region":"Region 3","Province":"Zambales","Address":"Bldg. 3000 Villa Amorosa, Upper Cubi Point, Subic Bay, Freeport Zone","Contact":"047-2528395 / 2500971","Type":"Private","Service Capability Level":"Level 2","Capacity":"50","COVID Capacity\n(Y/N)":"","Notes":""},
{"DOH code":"5082","Hospital":"MARY MEDIATRIX MEDICAL CENTER, INC.","HospitalID\nDoH Short Code":"5082","LATITUDE":"13.9439574","LONGITUDE":"121.1500746","Region":"Region 4-A","Province":"Batangas","Address":"J.P. Laurel Highway, Mataas na Lupa, Lipa City","Contact":"043-7736800/ 7736861 fax/ mmmcadm@mmmc.ph","Type":"Private","Service Capability Level":"Level 3","Capacity":"200","COVID Capacity\n(Y/N)":"","Notes":""},
{"DOH code":"6883","Hospital":"Metro Balayan Medical Center","HospitalID\nDoH Short Code":"6883","LATITUDE":"13.9497101","LONGITUDE":"120.725742","Region":"Region 4-A","Province":"Batangas","Address":"National Highway, Caloocan, Balayan","Contact":"043-2116556 fax / metrobalayanmedicalcenter@yahoo.com","Type":"Private","Service Capability Level":"Level 2","Capacity":"58","COVID Capacity\n(Y/N)":"","Notes":""},
{"DOH code":"2505","Hospital":"C.P. REYES HOSPITAL","HospitalID\nDoH Short Code":"2505","LATITUDE":"14.0844253","LONGITUDE":"121.1473205","Region":"Region 4-A","Province":"Batangas","Address":"A. Mabini Ave., Tanauan City","Contact":"043-7845401-06 / 7781629 / 7781620 / recruitment_cprh@yahoo.com / tqm@cpreyeshospital.com","Type":"Private","Service Capability Level":"Level 2","Capacity":"137","COVID Capacity\n(Y/N)":"","Notes":""},
{"DOH code":"31982","Hospital":"UNITED DOCTORS OF ST. CAMILLUS DE LELLIS HOSPITAL","HospitalID\nDoH Short Code":"31982","LATITUDE":"13.7819775","LONGITUDE":"121.0537843","Region":"Region 4-A","Province":"Batangas","Address":"Diversion Road, Barangay Bolbok, Batangas City","Contact":"043-7403087-88/ 7403086 fax/ stcamillus_fn23@yahoo.com/ stcamillus_fn23@gmail.com","Type":"Private","Service Capability Level":"Level 2","Capacity":"41","COVID Capacity\n(Y/N)":"","Notes":""},
{"DOH code":"4182","Hospital":"N.L. VILLA MEMORIAL MEDICAL CENTER","HospitalID\nDoH Short Code":"4182","LATITUDE":"13.9387999","LONGITUDE":"121.163248","Region":"Region 4-A","Province":"Batangas","Address":"F. Manalo St., Lipa City","Contact":"043-7564871, 043-7564872/ TF 7571281/ 02-5525090","Type":"Private","Service Capability Level":"Level 2","Capacity":"99","COVID Capacity\n(Y/N)":"","Notes":""},
{"DOH code":"667","Hospital":"METRO LIPA MEDICAL CENTER","HospitalID\nDoH Short Code":"667","LATITUDE":"13.9684328","LONGITUDE":"121.1644583","Region":"Region 4-A","Province":"Batangas","Address":"J.P. Laurel Highway, Brgy. Marawoy, Lipa City","Contact":"043-7560549/ 7028198/ metrolipamedicalcenter@yahoo.com","Type":"Private","Service Capability Level":"Level 2","Capacity":"48","COVID Capacity\n(Y/N)":"","Notes":""},
{"DOH code":"3888","Hospital":"SAN ANTONIO MEDICAL CENTER OF LIPA, INC.","HospitalID\nDoH Short Code":"3888","LATITUDE":"13.9422655","LONGITUDE":"121.1628825","Region":"Region 4-A","Province":"Batangas","Address":"#2 C.M. Recto Ave., Lipa City, Batangas","Contact":"043-7562522/ 7565720 fax/ 7561980/ sanantonio_gen1970@yahoo.com","Type":"Private","Service Capability Level":"Level 2","Capacity":"25","COVID Capacity\n(Y/N)":"","Notes":""},
{"DOH code":"5796","Hospital":"DANIEL O. MERCADO MEDICAL CENTER","HospitalID\nDoH Short Code":"5796","LATITUDE":"14.079524","LONGITUDE":"121.1489063","Region":"Region 4-A","Province":"Batangas","Address":"No. 1 Pres. Laurel Highway, Tanauan City, Batangas","Contact":"043-7781810/ 7780960/ aaaguirre@dmmcinc.com","Type":"Private","Service Capability Level":"Level 3","Capacity":"127","COVID Capacity\n(Y/N)":"","Notes":""},
{"DOH code":"665","Hospital":"METRO LEMERY MEDICAL CENTER","HospitalID\nDoH Short Code":"665","LATITUDE":"13.8875292","LONGITUDE":"120.9113813","Region":"Region 4-A","Province":"Batangas","Address":"Palanas, Lemery, Batangas","Contact":"043-4090480 / 5194878 / 7400245 fax / metrolemerymedicntr@yahoo.com","Type":"Private","Service Capability Level":"Level 2","Capacity":"72","COVID Capacity\n(Y/N)":"","Notes":""},
{"DOH code":"1911","Hospital":"Lemery Doctors Medical Center","HospitalID\nDoH Short Code":"1911","LATITUDE":"13.8770024","LONGITUDE":"120.9150935","Region":"Region 4-A","Province":"Batangas","Address":"R. Diokno St., Lemery, Batangas","Contact":"043-4111531 / 40927716 fax / lemerydoctors@yahoo.com","Type":"Private","Service Capability Level":"Level 2","Capacity":"40","COVID Capacity\n(Y/N)":"","Notes":""},
{"DOH code":"24435","Hospital":"MEDICAL CENTER WESTERN BATANGAS","HospitalID\nDoH Short Code":"24435","LATITUDE":"13.9539505","LONGITUDE":"120.7292502","Region":"Region 4-A","Province":"Batangas","Address":"Brgy. Lanatan, Balayan","Contact":"043-4071103 / 4071101 fax / medicalcenterwesternbatangas@yahoo.com","Type":"Private","Service Capability Level":"Level 2","Capacity":"40","COVID Capacity\n(Y/N)":"","Notes":""},
{"DOH code":"24436","Hospital":"Metro San Jose Medical Center","HospitalID\nDoH Short Code":"24436","LATITUDE":"13.9216987","LONGITUDE":"121.1033997","Region":"Region 4-A","Province":"Batangas","Address":"National Highway, Banaybanay 2nd, San Jose","Contact":"043-7260207 / 7025490","Type":"Private","Service Capability Level":"Level 2","Capacity":"50","COVID Capacity\n(Y/N)":"","Notes":""},
{"DOH code":"4691","Hospital":"St. Frances Cabrini Medical Center, Inc.","HospitalID\nDoH Short Code":"4691","LATITUDE":"14.1089715","LONGITUDE":"121.1434165","Region":"Region 4-A","Province":"Batangas","Address":"Maharlika HIghway, Poblacion 2, Sto. Tomas","Contact":"043-7784811-15 / 87784819 fax / cabrini.medicalcenter@gmail.com","Type":"Private","Service Capability Level":"Level 2","Capacity":"100","COVID Capacity\n(Y/N)":"","Notes":""},
{"DOH code":"3111","Hospital":"Our Lady of Caysasay Medical Center","HospitalID\nDoH Short Code":"3111","LATITUDE":"13.8812405","LONGITUDE":"120.9132517","Region":"Region 4-A","Province":"Batangas","Address":"V. Illustre Ave., Lemery, Batangas","Contact":"043-4091888-92 / 4110980-83 / 4090088 fax","Type":"Private","Service Capability Level":"Level 2","Capacity":"100","COVID Capacity\n(Y/N)":"","Notes":""},
{"DOH code":"5148","Hospital":"Taal Polymedic Hospital and Medical Center","HospitalID\nDoH Short Code":"5148","LATITUDE":"13.88594","LONGITUDE":"120.9397109","Region":"Region 4-A","Province":"Batangas","Address":"Diversion Road, Carsuche, Taal","Contact":"043-2142384 / 7065116 / tphmedcen96@yahoo.com","Type":"Private","Service Capability Level":"Level 2","Capacity":"40","COVID Capacity\n(Y/N)":"","Notes":""},
{"DOH code":"2829","Hospital":"BATANGAS MEDICAL CENTER","HospitalID\nDoH Short Code":"2829","LATITUDE":"13.7668617","LONGITUDE":"121.0641154","Region":"Region 4-A","Province":"Batangas","Address":"Kumintang Ibaba, Batangas City","Contact":"043-7408307 / 7230165 fax / batmedcen@yahoo.com","Type":"Public - DOH Retained","Service Capability Level":"Level 3","Capacity":"400","COVID Capacity\n(Y/N)":"","Notes":""},
{"DOH code":"38110","Hospital":"BATANGAS HEALTHCARE SPECIALISTS MEDICAL CENTER","HospitalID\nDoH Short Code":"38110","LATITUDE":"13.7876482","LONGITUDE":"121.0580377","Region":"Region 4-A","Province":"Batangas","Address":"Diversion Road, Barangay Alangilan, Batangas City","Contact":"\n(043) 741 1888","Type":"Private","Service Capability Level":"Level 2/3","Capacity":"","COVID Capacity\n(Y/N)":"","Notes":""},
{"DOH code":"5483","Hospital":"GOLDEN GATE GENERAL HOSPITAL, INC.","HospitalID\nDoH Short Code":"5483","LATITUDE":"13.7576692","LONGITUDE":"121.0595461","Region":"Region 4-A","Province":"Batangas","Address":"17 P. Prieto St., Brgy. 4, Poblacion, Batangas City","Contact":"043-7238508/ 7237693 fax/ gggh_HR@yahoo.com","Type":"Private","Service Capability Level":"Level 2","Capacity":"100","COVID Capacity\n(Y/N)":"","Notes":""},
{"DOH code":"4334","Hospital":"SAINT PATRICK'S HOSPITAL MEDICAL CENTER","HospitalID\nDoH Short Code":"4334","LATITUDE":"13.7555318","LONGITUDE":"121.0596878","Region":"Region 4-A","Province":"Batangas","Address":"Lopez Jaena St.","Contact":"043-7230754/ 7238386 fax/ sphmc_hr@ymail.com","Type":"Private","Service Capability Level":"Level 3","Capacity":"100","COVID Capacity\n(Y/N)":"","Notes":""},
{"DOH code":"5998","Hospital":"BATANGAS HEALTH CARE HOSPITAL, JESUS OF NAZARETH","HospitalID\nDoH Short Code":"5998","LATITUDE":"13.7634445","LONGITUDE":"121.0785093","Region":"Region 4-A","Province":"Batangas","Address":"Brgy. Gulod Itaas","Contact":"043-7232918/ 7238615 fax/ bhchjon_nazareth@yahoo.com","Type":"Private","Service Capability Level":"Level 2","Capacity":"139","COVID Capacity\n(Y/N)":"","Notes":""},
{"DOH code":"428","Hospital":"Bauan Doctors General Hospital","HospitalID\nDoH Short Code":"428","LATITUDE":"13.7953526","LONGITUDE":"121.0003228","Region":"Region 4-A","Province":"Batangas","Address":"F. Mangobos St., cor. Tano Road, Poblacion I, Bauan","Contact":"043-7274194","Type":"Private","Service Capability Level":"Level 2","Capacity":"100","COVID Capacity\n(Y/N)":"","Notes":""},
{"DOH code":"6025","Hospital":"LIPA MEDIX MEDICAL CENTER","HospitalID\nDoH Short Code":"6025","LATITUDE":"13.9476661","LONGITUDE":"121.1547781","Region":"Region 4-A","Province":"Batangas","Address":"Ayala Highway, Balintawak, Lipa City","Contact":"043-7563008 loc. 129","Type":"Private","Service Capability Level":"Level 2","Capacity":"150","COVID Capacity\n(Y/N)":"","Notes":""},
{"DOH code":"32011","Hospital":"GENTRI MEDICAL CENTER AND HOSPITAL, INC.","HospitalID\nDoH Short Code":"32011","LATITUDE":"14.2890745","LONGITUDE":"120.9046992","Region":"Region 4-A","Province":"Cavite","Address":"Santusan St., Brgy. Manggahan, General Trias","Contact":"046-4240888/ loc. 207 fax/ gentrimedical_30@yahoo.com","Type":"Private","Service Capability Level":"Level 2","Capacity":"50","COVID Capacity\n(Y/N)":"","Notes":""},
{"DOH code":"31977","Hospital":"CITY OF GENERAL TRIAS DOCTORS MEDICAL CENTER, INC.","HospitalID\nDoH Short Code":"31977","LATITUDE":"14.2910188","LONGITUDE":"120.9017944","Region":"Region 4-A","Province":"Cavite","Address":"Governors Drive, Metropolis Green, Brgy. Manggahan, Gen. Trias","Contact":"046-4162222/ loc. 116 fax/ gentridoctors@yahoo.com","Type":"Private","Service Capability Level":"Level 2","Capacity":"96","COVID Capacity\n(Y/N)":"","Notes":""},
{"DOH code":"7517","Hospital":"OUR LADY OF THE PILLAR MEDICAL CENTER","HospitalID\nDoH Short Code":"7517","LATITUDE":"14.4190577","LONGITUDE":"120.9370294","Region":"Region 4-A","Province":"Cavite","Address":"Tamsui Ave., Bayan Luma, Imus","Contact":"046-4723773/ 4723191 fax/ olpmcenter@yahoo.com","Type":"Private","Service Capability Level":"Level 2","Capacity":"98","COVID Capacity\n(Y/N)":"","Notes":""},
{"DOH code":"32063","Hospital":"PAGAMUTAN NG DASMARINAS","HospitalID\nDoH Short Code":"32063","LATITUDE":"14.3230026","LONGITUDE":"120.9594773","Region":"Region 4-A","Province":"Cavite","Address":"Brgy. Burol II, City of Dasmarinas","Contact":"0928-5031082 / 4814400 / robertoire@yahoo.com/pagamutanngdasma@gmail.com","Type":"Public","Service Capability Level":"Level 2","Capacity":"119","COVID Capacity\n(Y/N)":"","Notes":""},
{"DOH code":"3802","Hospital":"CAVITE MEDICAL CENTER","HospitalID\nDoH Short Code":"3802","LATITUDE":"14.4633367","LONGITUDE":"120.877441","Region":"Region 4-A","Province":"Cavite","Address":"Manile-Cavite Road, Dalahican","Contact":"cavitemed2005@yahoo.com/ info@cavitemedicalcenter.com","Type":"Private","Service Capability Level":"Level 2","Capacity":"60","COVID Capacity\n(Y/N)":"","Notes":""},
{"DOH code":"2830","Hospital":"BAUTISTA HOSPITAL","HospitalID\nDoH Short Code":"2830","LATITUDE":"14.4772319","LONGITUDE":"120.8898123","Region":"Region 4-A","Province":"Cavite","Address":"#375 P. Burgos Ave., Caridad, Cavite City","Contact":"046-4310330/ 4310416/ 4310330 fax/ bautistahospital@yahoo.com.ph","Type":"Private","Service Capability Level":"Level 2","Capacity":"60","COVID Capacity\n(Y/N)":"","Notes":""},
{"DOH code":"4591","Hospital":"DE LA SALLE UNIVERSITY MEDICAL CENTER","HospitalID\nDoH Short Code":"4591","LATITUDE":"14.327174","LONGITUDE":"120.9412193","Region":"Region 4-A","Province":"Cavite","Address":"Gov. Dominador I. Mangubat Ave., Zone 4","Contact":"02-9883100/ 046-4818000/ 4818002 fax/ http://www.dishsi.edu.ph","Type":"Private","Service Capability Level":"Level 3","Capacity":"250","COVID Capacity\n(Y/N)":"","Notes":""},
{"DOH code":"6079","Hospital":"ST. PAUL HOSPITAL CAVITE, INC.","HospitalID\nDoH Short Code":"6079","LATITUDE":"14.3233178","LONGITUDE":"120.96076","Region":"Region 4-A","Province":"Cavite","Address":"Burol II, Bagong Bayan, Dasmarinas City","Contact":"046-4818270-73/ 4841988 fax","Type":"Private","Service Capability Level":"Level 2","Capacity":"100","COVID Capacity\n(Y/N)":"","Notes":""},
{"DOH code":"4417","Hospital":"GENERAL EMILIO AGUINALDO MEMORIAL HOSPITAL","HospitalID\nDoH Short Code":"4417","LATITUDE":"14.2759968","LONGITUDE":"120.8675512","Region":"Region 4-A","Province":"Cavite","Address":"Luciano, Trece Martires City","Contact":"046-4190063 / pho1_geamh@yahoo.com","Type":"Public","Service Capability Level":"Level 3","Capacity":"284","COVID Capacity\n(Y/N)":"","Notes":""},
{"DOH code":"31549","Hospital":"SOUTHEAST ASIAN MEDICAL CENTER, INC.","HospitalID\nDoH Short Code":"31549","LATITUDE":"14.4059243","LONGITUDE":"120.9746405","Region":"Region 4-A","Province":"Cavite","Address":"Molino Road, Brgy. Molino III, Bacoor","Contact":"5844747/ president.southeastasianhospital.com","Type":"Private","Service Capability Level":"Level 2","Capacity":"50","COVID Capacity\n(Y/N)":"","Notes":""},
{"DOH code":"32058","Hospital":"CARMONA HOSPITAL AND MEDICAL CENTER INC.","HospitalID\nDoH Short Code":"32058","LATITUDE":"14.3147178","LONGITUDE":"121.0499283","Region":"Region 4-A","Province":"Cavite","Address":"Purificacion St., Brgy. Mabuhay, Carmona","Contact":"046-4300295/ 09324387530/ 09227772208/ 09272449406/ 4198110/ carmonahospitalmci@gmail.com","Type":"Private","Service Capability Level":"Level 2","Capacity":"71","COVID Capacity\n(Y/N)":"","Notes":""},
{"DOH code":"6011","Hospital":"DIVINE GRACE MEDICAL CENTER","HospitalID\nDoH Short Code":"6011","LATITUDE":"14.3978808","LONGITUDE":"120.8659182","Region":"Region 4-A","Province":"Cavite","Address":"Bypass Road, Tejero, General Trias, Cavite","Contact":"046-4892224-26","Type":"Private","Service Capability Level":"Level 2","Capacity":"75","COVID Capacity\n(Y/N)":"","Notes":""},
{"DOH code":"31936","Hospital":"TAGAYTAY MEDICAL CENTER, INC.","HospitalID\nDoH Short Code":"31936","LATITUDE":"14.1156535","LONGITUDE":"120.960896","Region":"Region 4-A","Province":"Cavite","Address":"E. Aguinaldo Highway, Silang Junction East, Tagaytay City","Contact":"046-8602529/ 02-5844209/ 4133954","Type":"Private","Service Capability Level":"Level 2","Capacity":"90","COVID Capacity\n(Y/N)":"","Notes":""},
{"DOH code":"3867","Hospital":"EMILIO AGUINALDO COLLEGE MEDICAL CENTER CAVITE","HospitalID\nDoH Short Code":"3867","LATITUDE":"14.3486249","LONGITUDE":"120.937512","Region":"Region 4-A","Province":"Cavite","Address":"Salitran II, City of Dasmarinas, Cavite","Contact":"4166657/ 5194210 fax/ eacmedcavite@gmail.com","Type":"Private","Service Capability Level":"Level 2","Capacity":"154","COVID Capacity\n(Y/N)":"","Notes":""},
{"DOH code":"31925","Hospital":"DASMARINAS CITY MEDICAL CENTER, INC.","HospitalID\nDoH Short Code":"31925","LATITUDE":"14.3530591","LONGITUDE":"120.9792421","Region":"Region 4-A","Province":"Cavite","Address":"Salawag Crossing, Brgy. Salawag","Contact":"046-4839000/ 4839021","Type":"Private","Service Capability Level":"Level 2","Capacity":"60","COVID Capacity\n(Y/N)":"","Notes":""},
{"DOH code":"2596","Hospital":"MEDICAL CENTER IMUS","HospitalID\nDoH Short Code":"2596","LATITUDE":"14.4260031","LONGITUDE":"120.9442104","Region":"Region 4-A","Province":"Cavite","Address":"Diversion Road, Palico IV, Imus","Contact":"046-4722220/ 4723032 fax/ mci_presidents_office@yahoo.com","Type":"Private","Service Capability Level":"Level 2","Capacity":"90","COVID Capacity\n(Y/N)":"","Notes":""},
{"DOH code":"32056","Hospital":"BINAKAYAN HOSPITAL AND MEDICAL CENTER","HospitalID\nDoH Short Code":"32056","LATITUDE":"14.4516763","LONGITUDE":"120.9240024","Region":"Region 4-A","Province":"Cavite","Address":"175 Covelandia Road, Brgy. Balsahan Bisita, Binakayan, Kawit","Contact":"046-4341484/ binakayanhmc@gmail.com","Type":"Private","Service Capability Level":"Level 2","Capacity":"100","COVID Capacity\n(Y/N)":"","Notes":""},
{"DOH code":"34413","Hospital":"SILANG SPECIALISTS MEDICAL CENTER, INC.","HospitalID\nDoH Short Code":"34413","LATITUDE":"14.2346765","LONGITUDE":"120.9706279","Region":"Region 4-A","Province":"Cavite","Address":"Aguinaldo Highway, San Vicente II, Silang","Contact":"09175591680/ honradachermane@gmail.com","Type":"Private","Service Capability Level":"Level 2","Capacity":"100","COVID Capacity\n(Y/N)":"","Notes":""},
{"DOH code":"760","Hospital":"ST. DOMINIC MEDICAL CENTER, INC.","HospitalID\nDoH Short Code":"760","LATITUDE":"14.4593866","LONGITUDE":"120.9582982","Region":"Region 4-A","Province":"Cavite","Address":"Aguinaldo Highway, Talaba","Contact":"046-4172520/ 4176454 fax","Type":"Private","Service Capability Level":"Level 2","Capacity":"100","COVID Capacity\n(Y/N)":"","Notes":""},
{"DOH code":"34433","Hospital":"GLOBAL CARE MEDICAL CENTER OF CANLUBANG, INC.","HospitalID\nDoH Short Code":"34433","LATITUDE":"14.2117535","LONGITUDE":"121.1121536","Region":"Region 4-A","Province":"Laguna","Address":"J. Yulo Ave., Brgy. Canlubang, Calamba City, Laguna","Contact":"049-5205626/ 09176257368/ 09178617500","Type":"Private","Service Capability Level":"Level 2","Capacity":"30","COVID Capacity\n(Y/N)":"","Notes":""},
{"DOH code":"3814","Hospital":"CALAMBA DOCTORS HOSPITAL","HospitalID\nDoH Short Code":"3814","LATITUDE":"14.217535","LONGITUDE":"121.1400027","Region":"Region 4-A","Province":"Laguna","Address":"Km. 49, National Highway, Parian, Calamba City, Laguna","Contact":"049-5457371/ 5452527 fax/ amsi_cdh@yahoo.com","Type":"Private","Service Capability Level":"Level 2","Capacity":"120","COVID Capacity\n(Y/N)":"","Notes":""},
{"DOH code":"439","Hospital":"CALAMBA MEDICAL CENTER","HospitalID\nDoH Short Code":"439","LATITUDE":"14.2067498","LONGITUDE":"121.1512822","Region":"Region 4-A","Province":"Laguna","Address":"#13 National Highway (Crossing), Brgy. Real, Calamba City","Contact":"049-5459162-63-65/ 5451740/ 9162/ 5456080/ 5452809 fax/ calambamed@cmc.ph","Type":"Private","Service Capability Level":"Level 2","Capacity":"122","COVID Capacity\n(Y/N)":"","Notes":""},
{"DOH code":"7012","Hospital":"BINAN DOCTORS HOSPITAL INCORPORATED","HospitalID\nDoH Short Code":"7012","LATITUDE":"14.325948","LONGITUDE":"121.0899623","Region":"Region 4-A","Province":"Laguna","Address":"Platero, Binan City","Contact":"049-5119159/ 5208298 fax/ info@binandoctors.com.ph/ Binandoctors197@gmail.com","Type":"Private","Service Capability Level":"Level 2","Capacity":"100","COVID Capacity\n(Y/N)":"","Notes":""},
{"DOH code":"5380","Hospital":"UPH-DR. JOSE G. TAMAYO MEDICAL CENTER","HospitalID\nDoH Short Code":"5380","LATITUDE":"14.3302844","LONGITUDE":"121.0829156","Region":"Region 4-A","Province":"Laguna","Address":"Brgy. Sto. Nino, Binan","Contact":"02-7795310-21/ 049-5114800/ joe.beltran@uphmc.com.ph/ pcsoffice.binan@gmail.com","Type":"Private","Service Capability Level":"Level 3","Capacity":"250","COVID Capacity\n(Y/N)":"","Notes":""},
{"DOH code":"31978","Hospital":"UNIHEALTH SOUTHWOODS HOSPITAL AND MEDICAL CENTER, INC.","HospitalID\nDoH Short Code":"31978","LATITUDE":"14.331505","LONGITUDE":"121.0456827","Region":"Region 4-A","Province":"Laguna","Address":"Blk. 11 Lot 3, Southwoods Ecocentrum Business park, Brgy. San Francisco, Binan City","Contact":"02-77528621/ 8616386/ ushmc.fayelaude@yahoo.com/ admin@unihealthsouthwoods","Type":"Private","Service Capability Level":"Level 2","Capacity":"100","COVID Capacity\n(Y/N)":"","Notes":""},
{"DOH code":"609","Hospital":"LAGUNA PROVINCIAL HOSPITAL-SAN PABLO CITY DISTRICT HOSPITAL","HospitalID\nDoH Short Code":"609","LATITUDE":"14.0728641","LONGITUDE":"121.3281982","Region":"Region 4-A","Province":"Laguna","Address":"Gen. Luna St., Brgy. 4A, San Pablo City","Contact":"049-5211677 / 5620371 fax / ppispc@yahoo.com","Type":"Public","Service Capability Level":"Level 2","Capacity":"100","COVID Capacity\n(Y/N)":"","Notes":""},
{"DOH code":"6718","Hospital":"SAN PABLO COLLEGES MEDICAL CENTER","HospitalID\nDoH Short Code":"6718","LATITUDE":"14.0708851","LONGITUDE":"121.3044029","Region":"Region 4-A","Province":"Laguna","Address":"Maharlika Highway, Brgy. San Rafael, San Pablo City","Contact":"049-5620726/ 5620728 fax/ spcmedicalcenter@gmail.com","Type":"Private","Service Capability Level":"Level 2","Capacity":"135","COVID Capacity\n(Y/N)":"","Notes":""},
{"DOH code":"23613","Hospital":"THE MEDICAL CITY SOUTH LUZON","HospitalID\nDoH Short Code":"23613","LATITUDE":"14.2484642","LONGITUDE":"121.0650371","Region":"Region 4-A","Province":"Laguna","Address":"Greenfield City, Brgy. Don Jose, Sta, Rosa City","Contact":"049-5440120/ 5440120 loc. 1001","Type":"Private","Service Capability Level":"Level 2","Capacity":"100","COVID Capacity\n(Y/N)":"","Notes":""},
{"DOH code":"6782","Hospital":"SAN PABLO DOCTORS HOSPITAL","HospitalID\nDoH Short Code":"6782","LATITUDE":"14.0731667","LONGITUDE":"121.3220001","Region":"Region 4-A","Province":"Laguna","Address":"#55 A. Mabini St., San Pablo City","Contact":"049-5620998 telefax/ spdhimc_66@yahoo.com","Type":"Private","Service Capability Level":"Level 2","Capacity":"60","COVID Capacity\n(Y/N)":"","Notes":""},
{"DOH code":"2780","Hospital":"COMMUNITY GENERAL HOSPITAL OF SAN PABLO CITY, INC.","HospitalID\nDoH Short Code":"2780","LATITUDE":"14.0730241","LONGITUDE":"121.3126291","Region":"Region 4-A","Province":"Laguna","Address":"C. Colago Avenue, San Pablo City","Contact":"049-5628013/ 5622053/ 5627990 fax/ cgh_sanpablo@yahoo.com","Type":"Private","Service Capability Level":"Level 2","Capacity":"99","COVID Capacity\n(Y/N)":"","Notes":""},
{"DOH code":"764","Hospital":"ST. JAMES HOSPITAL, INC.","HospitalID\nDoH Short Code":"764","LATITUDE":"14.2808658","LONGITUDE":"121.1179221","Region":"Region 4-A","Province":"Laguna","Address":"Mariquita Pueblo, Dita, Sta. Rosa City","Contact":"049-5341254/ 02-5208468/ 5020058 fax/ stjames1993@yahoo.com","Type":"Private","Service Capability Level":"Level 2","Capacity":"80","COVID Capacity\n(Y/N)":"","Notes":""},
{"DOH code":"783","Hospital":"STA. ROSA HOSPITAL AND MEDICAL CENTER","HospitalID\nDoH Short Code":"783","LATITUDE":"14.287063","LONGITUDE":"121.0933413","Region":"Region 4-A","Province":"Laguna","Address":"RSBS Blvd., San Lorenzo South Balibago, Sta. Rosa City","Contact":"049-5080915/ 02-5844899/ 02-5844899 loc. 428/ sydney_sapno@yahoo.com","Type":"Private","Service Capability Level":"Level 2","Capacity":"99","COVID Capacity\n(Y/N)":"","Notes":""},
{"DOH code":"34471","Hospital":"QUALIMED HEALTH NETWORK STA. ROSA","HospitalID\nDoH Short Code":"34471","LATITUDE":"14.2326603","LONGITUDE":"121.0525054","Region":"Region 4-A","Province":"Laguna","Address":"Nuvali North, Barangay Sto. Domingo, Sta. Rosa City, Laguna","Contact":"049-3024015 / 0917-5609755 / rparboleda@qualimed.com.ph","Type":"Private","Service Capability Level":"Level 2","Capacity":"102","COVID Capacity\n(Y/N)":"","Notes":""},
{"DOH code":"7514","Hospital":"NEW SINAI MDI HOSPITAL","HospitalID\nDoH Short Code":"7514","LATITUDE":"14.3177969","LONGITUDE":"121.0962111","Region":"Region 4-A","Province":"Laguna","Address":"National Highway, Tagapo, Santa Rosa","Contact":"02-7590634/ 7590633 fax/ nsmdih_starosa@yahoo.com","Type":"Private","Service Capability Level":"Level 2","Capacity":"66","COVID Capacity\n(Y/N)":"","Notes":""},
{"DOH code":"5253","Hospital":"LOS BANOS DOCTORS HOSPITAL AND MEDICAL CENTER, INC.","HospitalID\nDoH Short Code":"5253","LATITUDE":"14.1708732","LONGITUDE":"121.2409766","Region":"Region 4-A","Province":"Laguna","Address":"Brgy. Batong Malake, Los Banos","Contact":"049-5360100/ 5361225 fax/ lbdhmc@yahoo.com","Type":"Private","Service Capability Level":"Level 2","Capacity":"80","COVID Capacity\n(Y/N)":"","Notes":""},
{"DOH code":"3495","Hospital":"HEALTHSERV LOS BANOS MEDICAL CENTER","HospitalID\nDoH Short Code":"3495","LATITUDE":"14.1788174","LONGITUDE":"121.2406067","Region":"Region 4-A","Province":"Laguna","Address":"#8817 National Highway, Batong Malake, Los Banos","Contact":"049-5364858/ 5844695 fax/ healthserv@yahoo.com","Type":"Private","Service Capability Level":"Level 2","Capacity":"78","COVID Capacity\n(Y/N)":"","Notes":""},
{"DOH code":"31980","Hospital":"WESTLAKE MEDICAL CENTER","HospitalID\nDoH Short Code":"31980","LATITUDE":"14.3470564","LONGITUDE":"121.0634393","Region":"Region 4-A","Province":"Laguna","Address":"National Highway, Brgy. Nueva, San Pedro","Contact":"02-5538185/ westlake_ph@ymail.com","Type":"Private","Service Capability Level":"Level 2","Capacity":"92","COVID Capacity\n(Y/N)":"","Notes":""},
{"DOH code":"6022","Hospital":"LAGUNA HOLY FAMILY HOSPITAL","HospitalID\nDoH Short Code":"6022","LATITUDE":"14.2749096","LONGITUDE":"121.418334","Region":"Region 4-A","Province":"Laguna","Address":"#1824 J. De Leon St., Sta. Cruz","Contact":"049-5011278/ 5011280/ 5013567/ 5011280 fax","Type":"Private","Service Capability Level":"Level 2","Capacity":"71","COVID Capacity\n(Y/N)":"","Notes":""},
{"DOH code":"5418","Hospital":"LAGUNA DOCTORS HOSPITAL, INC.","HospitalID\nDoH Short Code":"5418","LATITUDE":"14.2726263","LONGITUDE":"121.4169046","Region":"Region 4-A","Province":"Laguna","Address":"Pagsawitan, Sta. Cruz, Laguna","Contact":"049-5013218/ 5014094 fax/ lagunadoctors95@yahoo.com","Type":"Private","Service Capability Level":"Level 2","Capacity":"96","COVID Capacity\n(Y/N)":"","Notes":""},
{"DOH code":"28057","Hospital":"LAGUNA MEDICAL CENTER","HospitalID\nDoH Short Code":"28057","LATITUDE":"14.2754931","LONGITUDE":"121.4167571","Region":"Region 4-A","Province":"Laguna","Address":"J. De Leon St., Sta. Cruz","Contact":"049-5433333 loc 308 / loc 302 fax / laguna.provincial.hospital@gmail.com","Type":"Public","Service Capability Level":"Level 2","Capacity":"150","COVID Capacity\n(Y/N)":"","Notes":""},
{"DOH code":"34338","Hospital":"GLOBAL MEDICAL CENTER OF LAGUNA, INC.","HospitalID\nDoH Short Code":"34338","LATITUDE":"14.2334363","LONGITUDE":"121.1326575","Region":"Region 4-A","Province":"Laguna","Address":"National Highway, Brgy. Barlic, Cabuyao City","Contact":"091786175001/ 09228226335/ 049-5445812/ 5445921/ 5445975/ 5194485","Type":"Private","Service Capability Level":"Level 2","Capacity":"90","COVID Capacity\n(Y/N)":"","Notes":""},
{"DOH code":"3559","Hospital":"MANILA EAST MEDICAL CENTER","HospitalID\nDoH Short Code":"3559","LATITUDE":"14.5747292","LONGITUDE":"121.1437388","Region":"Region 4-A","Province":"Rizal","Address":"Manila East Road, Dolores, Taytay","Contact":"6600000/ 6612811 fax/ manilaeast@yahoo.com","Type":"Private","Service Capability Level":"Level 2","Capacity":"99","COVID Capacity\n(Y/N)":"","Notes":""},
{"DOH code":"31343","Hospital":"BINANGONAN LAKEVIEW HOSPITAL, INC.","HospitalID\nDoH Short Code":"31343","LATITUDE":"14.5028003","LONGITUDE":"121.170391","Region":"Region 4-A","Province":"Rizal","Address":"Km. 31, Manila East Road, Barangay Tagpos, Binangonan","Contact":"5700791/ 5708663 loc. 124/ 5700806/ 7063572","Type":"Private","Service Capability Level":"Level 2","Capacity":"88","COVID Capacity\n(Y/N)":"","Notes":""},
{"DOH code":"38112","Hospital":"METRO ANTIPOLO HOSPITAL AND MEDICAL CENTER, INC.","HospitalID\nDoH Short Code":"38112","LATITUDE":"14.6242753","LONGITUDE":"121.1185352","Region":"Region 4-A","Province":"Rizal","Address":"1348 Marcos Highway, Brgy. Mayamot, Antipolo City","Contact":"9088800","Type":"Private","Service Capability Level":"Level 2","Capacity":"99","COVID Capacity\n(Y/N)":"","Notes":""},
{"DOH code":"24434","Hospital":"CLINICA ANTIPOLO HOSPITAL AND WELLNESS CENTER, INC.","HospitalID\nDoH Short Code":"24434","LATITUDE":"14.5896359","LONGITUDE":"121.1676226","Region":"Region 4-A","Province":"Rizal","Address":"Lot 4, Ninoy Aquino Ave., Brgy. Dela Paz, Antipolo City","Contact":"6959480-87/ 4704693 fax/ enok_62081@yahoo.com","Type":"Private","Service Capability Level":"Level 2","Capacity":"73","COVID Capacity\n(Y/N)":"","Notes":""},
{"DOH code":"5105","Hospital":"UNCIANO COLLEGES AND GENERAL HOSPITAL, INC.","HospitalID\nDoH Short Code":"5105","LATITUDE":"14.580122","LONGITUDE":"121.1695903","Region":"Region 4-A","Province":"Rizal","Address":"Circumferential Road, San Roque, Antipolo City","Contact":"6507096/ 6970174 fax/ umc_antipolo@yahoo.com","Type":"Private","Service Capability Level":"Level 2","Capacity":"100","COVID Capacity\n(Y/N)":"","Notes":""},
{"DOH code":"31985","Hospital":"DIONISIO M. CORNEL MEDICAL CENTER, INC.","HospitalID\nDoH Short Code":"31985","LATITUDE":"14.6251269","LONGITUDE":"121.1224972","Region":"Region 4-A","Province":"Rizal","Address":"#8001 Marcos Highway, Mayamot, Antipolo City","Contact":"6450411/ loc. 202 fax/ cornelmedicalcenter@yahoo.com","Type":"Private","Service Capability Level":"Level 2","Capacity":"80","COVID Capacity\n(Y/N)":"","Notes":""},
{"DOH code":"4424","Hospital":"Quezon Medical Center","HospitalID\nDoH Short Code":"4424","LATITUDE":"13.9421847","LONGITUDE":"121.6102788","Region":"Region 4-A","Province":"Quezon","Address":"Quezon Ave., Lucena City","Contact":"7103444 / 7104023 / 7176325 / quezon.medicancenter@yahoo.com.ph","Type":"Public","Service Capability Level":"Level 2","Capacity":"200","COVID Capacity\n(Y/N)":"","Notes":""},
{"DOH code":"19544","Hospital":"UNITED CANDELARIA DOCTORS, INC.","HospitalID\nDoH Short Code":"19544","LATITUDE":"13.930204","LONGITUDE":"121.4494183","Region":"Region 4-A","Province":"Quezon","Address":"Mangilag Sur, Candelaria","Contact":"042-5852114/ unitedcandelariadocs@gmail.com","Type":"Private","Service Capability Level":"Level 2","Capacity":"35","COVID Capacity\n(Y/N)":"","Notes":""},
{"DOH code":"24438","Hospital":"RAKKK PROPHET MEDICAL CENTER, INC.","HospitalID\nDoH Short Code":"24438","LATITUDE":"13.9321915","LONGITUDE":"122.0898181","Region":"Region 4-A","Province":"Quezon","Address":"Km. 194 Maharlika Highway, Brgy. Rosario, Gumaca","Contact":"3177857/ 3177856/ rakkkpmci@yahoo.com","Type":"Private","Service Capability Level":"Level 2","Capacity":"50","COVID Capacity\n(Y/N)":"","Notes":""},
{"DOH code":"712","Hospital":"PETER PAUL MEDICAL CENTER OF CANDELARIA, INC.","HospitalID\nDoH Short Code":"712","LATITUDE":"13.9264379","LONGITUDE":"121.4213334","Region":"Region 4-A","Province":"Quezon","Address":"Regidor St., Poblacion, Candelaria","Contact":"042-5854531/ 7411857/ pppch_1948@yahoo.com","Type":"Private","Service Capability Level":"Level 2","Capacity":"60","COVID Capacity\n(Y/N)":"","Notes":""},
{"DOH code":"6899","Hospital":"TAYABAS COMMUNITY HOSPITAL, INC.","HospitalID\nDoH Short Code":"6899","LATITUDE":"14.020667","LONGITUDE":"121.5952103","Region":"Region 4-A","Province":"Quezon","Address":"National Road, Brgy. Wakas, City of Tayabas","Contact":"042-7932216/ tchi.1976@yahoo.com.ph","Type":"Private","Service Capability Level":"Level 2","Capacity":"105","COVID Capacity\n(Y/N)":"","Notes":""},
{"DOH code":"4801","Hospital":"ST. ANNE GENERAL HOSPITAL, INC.","HospitalID\nDoH Short Code":"4801","LATITUDE":"13.9375686","LONGITUDE":"121.6164938","Region":"Region 4-A","Province":"Quezon","Address":"P. Gomez Ext., Red-V, Ibabang Dupay, Lucena City (formerly:P. Gomez Ext., Brgy. Ibabang Dupay, Red V, Lucena City)","Contact":"042-7102218/ 7105234 fax/ st.annegeneralhospital@yahoo.com/ saghiofficial@yahoo.com","Type":"Private","Service Capability Level":"Level 2","Capacity":"80","COVID Capacity\n(Y/N)":"","Notes":""},
{"DOH code":"627","Hospital":"LUCENA UNITED DOCTORS, INC.","HospitalID\nDoH Short Code":"627","LATITUDE":"13.947331","LONGITUDE":"121.5830993","Region":"Region 4-A","Province":"Quezon","Address":"Brgy. Isabang, Lucena City, Quezon","Contact":"042-3736161-64/ 3736321 fax/ ludhmc@yahoo.com.ph","Type":"Private","Service Capability Level":"Level 2","Capacity":"97","COVID Capacity\n(Y/N)":"","Notes":""},
{"DOH code":"3558","Hospital":"LUCENA MMG GENERAL HOSPITAL","HospitalID\nDoH Short Code":"3558","LATITUDE":"13.944977","LONGITUDE":"121.6287263","Region":"Region 4-A","Province":"Quezon","Address":"Red-V, Maharlika Highway, Ibabang Dupay","Contact":"042-3735925/ 3735926/ 3737170 fax/ lucenammghosp@yahoo.com","Type":"Private","Service Capability Level":"Level 2","Capacity":"95","COVID Capacity\n(Y/N)":"","Notes":""},
{"DOH code":"2173","Hospital":"MOUNT CARMEL DIOCESAN GENERAL HOSPITAL","HospitalID\nDoH Short Code":"2173","LATITUDE":"13.9408018","LONGITUDE":"121.6089286","Region":"Region 4-A","Province":"Quezon","Address":"Allarey Extension, Brgy. 1, Lucena City","Contact":"042-7102576-77/ 3737139 fax/ mcdgh_lucena@yahoo.com","Type":"Private","Service Capability Level":"Level 2","Capacity":"178","COVID Capacity\n(Y/N)":"","Notes":""},
{"DOH code":"5225","Hospital":"MARIA ESTRELLA GENERAL HOSPITAL, INC.","HospitalID\nDoH Short Code":"5225","LATITUDE":"13.396276","LONGITUDE":"121.169366","Region":"Region 4-B","Province":"Mindoro","Address":"Brgy. Tawiran, Calapan City, Oriental Mindoro","Contact":"043-2867386/ 4410079 fax/ megh2k6@yahoo.com","Type":"Private","Service Capability Level":"Level 2/3","Capacity":"95","COVID Capacity\n(Y/N)":"","Notes":""},
{"DOH code":"5272","Hospital":"MEDICAL MISSION GROUP HOSPITAL MULTIPURPOSE COOPERATIVE OF ORIENTAL MINDORO (MMGHMCOM)","HospitalID\nDoH Short Code":"5272","LATITUDE":"13.390413","LONGITUDE":"121.166009","Region":"Region 4-B","Province":"Mindoro","Address":"J.P. Rizal St., Tawiran, Calapan City, Oriental Mindoro","Contact":"043-2882275/ 28827080 fax/ mmg.ormin@gmail.com","Type":"Private","Service Capability Level":"Level 2","Capacity":"50","COVID Capacity\n(Y/N)":"","Notes":""},
{"DOH code":"3351","Hospital":"LUNA GOCO MEDICAL CENTER","HospitalID\nDoH Short Code":"3351","LATITUDE":"13.400547","LONGITUDE":"121.170738","Region":"Region 4-B","Province":"Mindoro","Address":"Lalud, Calapan City, Oriental Mindoro","Contact":"043-2882473/ 2867208 fax/ lgmc@hotmail.com/ lorman_d_great@yahoo.com","Type":"Private","Service Capability Level":"Level 2","Capacity":"30","COVID Capacity\n(Y/N)":"","Notes":""},
{"DOH code":"4529","Hospital":"ADVENTIST HOSPITAL-PALAWAN, INC.","HospitalID\nDoH Short Code":"4529","LATITUDE":"9.764459","LONGITUDE":"118.748034","Region":"Region 4-B","Province":"Palawan","Address":"San Pedro, Puerto Princesa City","Contact":"048-4331247 loc. 181/ 108/ adventisthospital_palawan@yahoo.com","Type":"Private","Service Capability Level":"Level 2","Capacity":"90","COVID Capacity\n(Y/N)":"","Notes":""},
{"DOH code":"266","Hospital":"CAMARINES NORTE PROVINCIAL HOSPITAL","HospitalID\nDoH Short Code":"266","LATITUDE":"14.122327","LONGITUDE":"122.957229","Region":"Region 5","Province":"Camarines Norte","Address":"Baqasbas Road, Daet","Contact":"054-4400178 / 4400199 / 4400178 fax / cnph_pho@yahoo.com / pho_camnorte@yahoo.com","Type":"Public","Service Capability Level":"Level 2","Capacity":"100","COVID Capacity\n(Y/N)":"","Notes":""},
{"DOH code":"4474","Hospital":"SANTISSIMA TRINIDAD HOSPITAL OF DAET","HospitalID\nDoH Short Code":"4474","LATITUDE":"14.10662","LONGITUDE":"122.949385","Region":"Region 5","Province":"Camarines Norte","Address":"Diversion Road, Camambugan, Daet","Contact":"054-7210224/ santissima_19@yahoo.com","Type":"Private","Service Capability Level":"Level 2","Capacity":"25","COVID Capacity\n(Y/N)":"","Notes":""},
{"DOH code":"no data","Hospital":"STO. NINO HOSPITAL","HospitalID\nDoH Short Code":"no data","LATITUDE":"14.118544","LONGITUDE":"122.950254","Region":"Region 5","Province":"Camarines Norte","Address":"Mercedes Road, Daet","Contact":"054-4400979/ 440977 fax/ santoninohospital @yahoo.com","Type":"Private","Service Capability Level":"Level 2","Capacity":"72","COVID Capacity\n(Y/N)":"","Notes":""},
{"DOH code":"389","Hospital":"LEON D. HERNANDEZ MEMORIAL HOSPITAL","HospitalID\nDoH Short Code":"389","LATITUDE":"14.114934","LONGITUDE":"122.957008","Region":"Region 5","Province":"Camarines Norte","Address":"#1328 Dasmarines St., Brgy. 8, Daet","Contact":"054-4401460/ 5712811 fax/ ldhmh_docs@yahoo.com","Type":"Private","Service Capability Level":"Level 2","Capacity":"114","COVID Capacity\n(Y/N)":"","Notes":""},
{"DOH code":"1873","Hospital":"UNIVERSIDAD DE STA. ISABEL DE NAGA","HospitalID\nDoH Short Code":"1873","LATITUDE":"13.628484","LONGITUDE":"123.188233","Region":"Region 5","Province":"Camarines Sur","Address":"Roxas Ave., Diversion Road, Naga City","Contact":"054-4724025/ 8118060/ 8111210/ mshospital2004@yahoo.com/ usihsdvphsoffice@yahoo.com","Type":"Private","Service Capability Level":"Level 3","Capacity":"150","COVID Capacity\n(Y/N)":"","Notes":""},
{"DOH code":"270","Hospital":"Bicol Regional Training and Teaching Hospital","HospitalID\nDoH Short Code":"270","LATITUDE":"13.147268","LONGITUDE":"123.725058","Region":"Region 5","Province":"Albay","Address":"Rizal St., Legazpi City","Contact":"","Type":"Public","Service Capability Level":"Level 3","Capacity":"250","COVID Capacity\n(Y/N)":"","Notes":""},
{"DOH code":"4308","Hospital":"ESTEVEZ MEMORIAL HOSPITAL INC.","HospitalID\nDoH Short Code":"4308","LATITUDE":"13.138400","LONGITUDE":"123.740748","Region":"Region 5","Province":"Camarines Sur","Address":"Don Juan S. Estevez St., Guevarra Subd.","Contact":"052-4804021 loc. 6004-6024/ 09189247495/ 4802135 fax/ emh@estevezhospital.com/ mlv.estz@gmail.com","Type":"Private","Service Capability Level":"Level 2","Capacity":"100","COVID Capacity\n(Y/N)":"","Notes":""},
{"DOH code":"278","Hospital":"Bicol Medical Center","HospitalID\nDoH Short Code":"278","LATITUDE":"13.623157","LONGITUDE":"123.198588","Region":"Region 5","Province":"Camarines Sur","Address":"Bagumbayan, Libmanan, Camarines Sur","Contact":"054-4745041 / 4720557 / bmc.nagacity@gmail.com","Type":"Public","Service Capability Level":"Level 3","Capacity":"450","COVID Capacity\n(Y/N)":"","Notes":""},
{"DOH code":"32018","Hospital":"BICOL ACCESS HEALTH CENTRUM","HospitalID\nDoH Short Code":"32018","LATITUDE":"13.619086","LONGITUDE":"123.192216","Region":"Region 5","Province":"Camarines Sur","Address":"Central Business District II, Brgy. Triangulo, Naga City","Contact":"054-4732242/ 4732243 fax/ bicolaccesshealthcentrum2015@yahoo.com.ph","Type":"Private","Service Capability Level":"Level 2","Capacity":"26","COVID Capacity\n(Y/N)":"","Notes":""},
{"DOH code":"5199","Hospital":"ST. JOHN HOSPITAL, INC.","HospitalID\nDoH Short Code":"5199","LATITUDE":"13.622961","LONGITUDE":"123.190543","Region":"Region 5","Province":"Camarines Sur","Address":"Panganiban Drive, Naga City, Camarines Sur","Contact":"054-4738919/ 4724521/ stjohnhosp72_naga_4400@yahoo.com","Type":"Private","Service Capability Level":"Level 2","Capacity":"60","COVID Capacity\n(Y/N)":"","Notes":""},
{"DOH code":"267","Hospital":"Masbate Provincial Hospital","HospitalID\nDoH Short Code":"267","LATITUDE":"12.372528","LONGITUDE":"123.623727","Region":"Region 5","Province":"Masbate","Address":"PHO Road, Brgy. J.T. Fernandez, Masbate City, Bicol","Contact":"masbate_pho@yahoo.com","Type":"Public","Service Capability Level":"Level 2","Capacity":"100","COVID Capacity\n(Y/N)":"","Notes":""},
{"DOH code":"2997","Hospital":"UNIVERSITY OF SANTO TOMAS (UST) - LEGAZPI, INC. ( formerly AQUINAS UNIVERSITY HOSPITAL FOUNDATION, INC.)","HospitalID\nDoH Short Code":"2997","LATITUDE":"13.163701","LONGITUDE":"123.750588","Region":"Region 5","Province":"Albay","Address":"Captain F. Aquende Drive, Legazpi City","Contact":"052-4812839/ aquinashospital@yahoo.com","Type":"Private","Service Capability Level":"Level 2","Capacity":"75","COVID Capacity\n(Y/N)":"","Notes":""},
{"DOH code":"390","Hospital":"TANCHULING HOSPITAL","HospitalID\nDoH Short Code":"390","LATITUDE":"13.143981","LONGITUDE":"123.751953","Region":"Region 5","Province":"Albay","Address":"Imperial Court Subd., Rizal St., Legazpi City","Contact":"052-4806302/ 4806545 fax/ tghlegazpi@gmail.com","Type":"Private","Service Capability Level":"Level 2","Capacity":"50","COVID Capacity\n(Y/N)":"","Notes":""},
{"DOH code":"402","Hospital":"AGO GENERAL HOSPITAL","HospitalID\nDoH Short Code":"402","LATITUDE":"13.139801","LONGITUDE":"123.730891","Region":"Region 5","Province":"Albay","Address":"Rizal St., Legazpi City","Contact":"052-4811849/ 4811155 fax/ amec.bccm@yahoo.com","Type":"Private","Service Capability Level":"Level 2","Capacity":"100","COVID Capacity\n(Y/N)":"","Notes":""},
{"DOH code":"374","Hospital":"ALBAY DOCTORS HOSPITAL","HospitalID\nDoH Short Code":"374","LATITUDE":"13.150035","LONGITUDE":"123.753249","Region":"Region 5","Province":"Albay","Address":"Penaranda St., Legazpi City","Contact":"052-4807838/ 4808747/ adh_hospital@yahoo.com","Type":"Private","Service Capability Level":"Level 2","Capacity":"55","COVID Capacity\n(Y/N)":"","Notes":""},
{"DOH code":"31927","Hospital":"NICC DOCTORS HOSPITAL","HospitalID\nDoH Short Code":"31927","LATITUDE":"13.616315","LONGITUDE":"123.192729","Region":"Region 5","Province":"Albay","Address":"CBD2, Roxas Ave., Diversion Road, Triangulo, Naga City","Contact":"054-4727252/ 4725202 fax/ niccdoctorshospital@gmail.com","Type":"Private","Service Capability Level":"Level 2","Capacity":"99","COVID Capacity\n(Y/N)":"","Notes":""},
{"DOH code":"5052","Hospital":"DR. FERNANDO B. DURAN SR. MEMORIAL HOSPITAL","HospitalID\nDoH Short Code":"5052","LATITUDE":"12.98332","LONGITUDE":"123.988222","Region":"Region 5","Province":"Sorsogon","Address":"Brgy. Macabog, Sorsogon City","Contact":"056-2110187 / dfbdsmh@gmail.com","Type":"Public","Service Capability Level":"Level 2","Capacity":"100","COVID Capacity\n(Y/N)":"","Notes":""},
{"DOH code":"3620","Hospital":"SORSOGON MEDICAL MISSION GROUP HOSPITAL AND HEALTH SERVICES COOPERATIVE","HospitalID\nDoH Short Code":"3620","LATITUDE":"12.978655","LONGITUDE":"123.986952","Region":"Region 5","Province":"Sorsogon","Address":"Pangpang, Sorsogon City","Contact":"0915-4798094","Type":"Public","Service Capability Level":"Level 2","Capacity":"100","COVID Capacity\n(Y/N)":"","Notes":""},
{"DOH code":"7489","Hospital":"Eastern Bicol Medical Center","HospitalID\nDoH Short Code":"7489","LATITUDE":"13.581256","LONGITUDE":"124.220121","Region":"Region 5","Province":"Catanduanes","Address":"San Isidro Village, Virac","Contact":"052-8111384","Type":"Public","Service Capability Level":"Level 2","Capacity":"100","COVID Capacity\n(Y/N)":"","Notes":""},
{"DOH code":"357","Hospital":"IMMACULATE HEART OF MARY HOSPITAL","HospitalID\nDoH Short Code":"357","LATITUDE":"13.58435","LONGITUDE":"124.23681","Region":"Region 5","Province":"Catanduanes","Address":"E. Rafael St., Rawis, Virac","Contact":"09294246583/ 052-8114250/ imhh_heart@yahoo.com","Type":"Private","Service Capability Level":"Level 2","Capacity":"36","COVID Capacity\n(Y/N)":"","Notes":""},
{"DOH code":"24195","Hospital":"THE HEALTH CENTRUM, INC.","HospitalID\nDoH Short Code":"24195","LATITUDE":"11.58122","LONGITUDE":"122.76807","Region":"Region 6","Province":"Capiz","Address":"Teodorica Ave., Banica, Roxas City","Contact":"036-6201023 loc 114/ 6205457 fax/ thehealthcentrum@gmail.com","Type":"Private","Service Capability Level":"Level 2","Capacity":"60","COVID Capacity\n(Y/N)":"","Notes":""},
{"DOH code":"1815","Hospital":"CAPIZ EMMANUEL HOSPITAL, INC.","HospitalID\nDoH Short Code":"1815","LATITUDE":"11.5762","LONGITUDE":"122.75168","Region":"Region 6","Province":"Capiz","Address":"Roxas Ave., Roxas City, Capiz","Contact":"036-6210443/ 6215608/ 6214761 FAX","Type":"Private","Service Capability Level":"Level 2","Capacity":"100","COVID Capacity\n(Y/N)":"","Notes":""},
{"DOH code":"5029","Hospital":"ROXAS MEMORIAL PROVINCIAL HOSPITAL","HospitalID\nDoH Short Code":"5029","LATITUDE":"11.58804","LONGITUDE":"122.75271","Region":"Region 6","Province":"Capiz","Address":"Arnaldo Blvd., Roxas City, Capiz","Contact":"036-6210823 / 6210030 / 6320963 fax / rmphrxcapiz@yahoo.com","Type":"Public","Service Capability Level":"Level 2","Capacity":"100","COVID Capacity\n(Y/N)":"","Notes":""},
{"DOH code":"756","Hospital":"ST. ANTHONY COLLEGE HOSPITAL","HospitalID\nDoH Short Code":"756","LATITUDE":"11.5780464","LONGITUDE":"122.7565727","Region":"Region 6","Province":"Capiz","Address":"San Roque Extension, Roxas City, Capiz","Contact":"036-6210431/ 6212129 fax/ sachroxas@yahoo.com","Type":"Private","Service Capability Level":"Level 2","Capacity":"165","COVID Capacity\n(Y/N)":"","Notes":""},
{"DOH code":"5567","Hospital":"ILOILO DOCTORS HOSPITAL, INC.","HospitalID\nDoH Short Code":"5567","LATITUDE":"10.69715","LONGITUDE":"122.5543","Region":"Region 6","Province":"Iloilo","Address":"West Ave., Molo, Iloilo City","Contact":"033-3377702-09/ 3350862/ 3375763 fax/ iloilodoctorshospital.admin@gmail.com/ iloilodoctorshospital@gmail.com","Type":"Private","Service Capability Level":"Level 3","Capacity":"300","COVID Capacity\n(Y/N)":"","Notes":""},
{"DOH code":"5614","Hospital":"ILOILO MISSION HOSPITAL, INC.","HospitalID\nDoH Short Code":"5614","LATITUDE":"10.71429","LONGITUDE":"122.56063","Region":"Region 6","Province":"Iloilo","Address":"Mission Road, Jaro, Iloilo City","Contact":"033-3200315-19/ 3200321 fax/ docpedmd@yahoo.com","Type":"Private","Service Capability Level":"Level 3","Capacity":"230","COVID Capacity\n(Y/N)":"","Notes":""},
{"DOH code":"2349","Hospital":"SEAMENS HOSPITAL-ILOILO","HospitalID\nDoH Short Code":"2349","LATITUDE":"10.71459","LONGITUDE":"122.53464","Region":"Region 6","Province":"Iloilo","Address":"Onate St., Mandurriao, Iloilo City","Contact":"033-3212469/ 3212438/ 3213523 fax/ shosp_ilo@yahoo.com","Type":"Private","Service Capability Level":"Level 2","Capacity":"43","COVID Capacity\n(Y/N)":"","Notes":""},
{"DOH code":"772","Hospital":"ST. PAULS HOSPITAL OF ILOILO, INC.","HospitalID\nDoH Short Code":"772","LATITUDE":"10.70274","LONGITUDE":"122.56681","Region":"Region 6","Province":"Iloilo","Address":"General Luna St., Iloilo City","Contact":"033-337241-49/ 3380676 fax/ sphiloilo@gmail.com","Type":"Private","Service Capability Level":"Level 3","Capacity":"265","COVID Capacity\n(Y/N)":"","Notes":""},
{"DOH code":"32078","Hospital":"MEDICUS MEDICAL CENTER CORPORATION","HospitalID\nDoH Short Code":"32078","LATITUDE":"10.70266","LONGITUDE":"122.55219","Region":"Region 6","Province":"Iloilo","Address":"R.V. Bernardo Ave., Brgy. San Rafael, Mandurriao, Iloilo City","Contact":"033-3287777/ 3287701/ 3287777 loc 130 fax/ medicusmedicalcenter@yahoo.com","Type":"Private","Service Capability Level":"Level 2","Capacity":"100","COVID Capacity\n(Y/N)":"","Notes":""},
{"DOH code":"2789","Hospital":"WEST VISAYAS STATE UNIVERSITY MEDICAL CENTER","HospitalID\nDoH Short Code":"2789","LATITUDE":"10.71587","LONGITUDE":"122.56103","Region":"Region 6","Province":"Iloilo","Address":"E. Lopez St., Jaro, Iloilo City","Contact":"033-3202431 / 3202623 fax / wvsumedcenter@yahoo.com","Type":"Public","Service Capability Level":"Level 3","Capacity":"300","COVID Capacity\n(Y/N)":"","Notes":""},
{"DOH code":"38114","Hospital":"METRO ILOILO HOSPITAL AND MEDICAL CENTER","HospitalID\nDoH Short Code":"38114","LATITUDE":"10.7628745","LONGITUDE":"122.5803652","Region":"Region 6","Province":"Iloilo","Address":"Metropolis Ave. Brgy. Tagbak, Jaro, Iloilo Cit","Contact":"033 327-1527/ 033 327-2030/ admin@metroiloilohospital.com/ nso@metroiloilohospital.com\n","Type":"Private","Service Capability Level":"Level 2/3","Capacity":"","COVID Capacity\n(Y/N)":"","Notes":""},
{"DOH code":"5034","Hospital":"WESTERN VISAYAS MEDICAL CENTER","HospitalID\nDoH Short Code":"5034","LATITUDE":"10.7188","LONGITUDE":"122.54179","Region":"Region 6","Province":"Iloilo","Address":"Q. Abeto St., Mandurriao, Iloilo City","Contact":"033-3211797","Type":"Public","Service Capability Level":"Level 3","Capacity":"300","COVID Capacity\n(Y/N)":"","Notes":""},
{"DOH code":"6594","Hospital":"ST. THERESE-MTC COLLEGE HOSPITAL","HospitalID\nDoH Short Code":"6594","LATITUDE":"10.67035","LONGITUDE":"122.38189","Region":"Region 6","Province":"Iloilo","Address":"San Agustin St., Brgy. San Agustin","Contact":"033-3378275/ 3378300/ 3378299 fax/ sttheresemtcchospital@gmail.com","Type":"Private","Service Capability Level":"Level 2","Capacity":"100","COVID Capacity\n(Y/N)":"","Notes":""},
{"DOH code":"32079","Hospital":"QUALIMED HEALTH NETWORK","HospitalID\nDoH Short Code":"32079","LATITUDE":"10.706453","LONGITUDE":"122.547686","Region":"Region 6","Province":"Iloilo","Address":"Ayala Atria Park, Don Donato Pison Avee., Brgy. San Rafael, Mandurriao, loilo City","Contact":"049-3024015/ 09175609755/ 033-3215272 loc. 207 fax/ rparboleda@qualimed.com.ph/ iloilo@qualimed.com","Type":"Private","Service Capability Level":"Level 2","Capacity":"102","COVID Capacity\n(Y/N)":"","Notes":""},
{"DOH code":"3715","Hospital":"THE MEDICAL CITY - ILOILO","HospitalID\nDoH Short Code":"3715","LATITUDE":"10.69942","LONGITUDE":"122.54312","Region":"Region 6","Province":"Iloilo","Address":"Locsin St., Brgy. Tap-oc, Molo, Iloilo City","Contact":"033-3381505/ 5001000/ 3383138","Type":"Private","Service Capability Level":"Level 2","Capacity":"108","COVID Capacity\n(Y/N)":"","Notes":""},
{"DOH code":"763","Hospital":"SAINT GABRIEL MEDICAL CENTER, INC.","HospitalID\nDoH Short Code":"763","LATITUDE":"11.70894","LONGITUDE":"122.3647","Region":"Region 6","Province":"Aklan","Address":"Archbishop Gabriel M. Reyes St. cor. G. Pastrana St., Kalibo","Contact":"036-2683710/ 2681623-27/ 2627315 fax/ stgabmedicalcenter@yahoo.com","Type":"Private","Service Capability Level":"Level 2","Capacity":"120","COVID Capacity\n(Y/N)":"","Notes":""},
{"DOH code":"513","Hospital":"DR. RAFAEL S. TUMBOKON MEMORIAL HOSPITAL","HospitalID\nDoH Short Code":"513","LATITUDE":"11.705212","LONGITUDE":"122.365706","Region":"Region 6","Province":"Aklan","Address":"Mabini Street, Poblacion, Kalibo, Aklan","Contact":"","Type":"Public","Service Capability Level":"Level 2/3","Capacity":"","COVID Capacity\n(Y/N)":"","Notes":""},
{"DOH code":"26270","Hospital":"ANTIQUE MEDICAL CENTER, INC.","HospitalID\nDoH Short Code":"26270","LATITUDE":"10.73706","LONGITUDE":"121.95146","Region":"Region 6","Province":"Aklan","Address":"San Angel, San Jose, Antique","Contact":"036-5408766/ 5407335","Type":"Private","Service Capability Level":"Level 2","Capacity":"105","COVID Capacity\n(Y/N)":"","Notes":""},
{"DOH code":"7121","Hospital":"ANGEL SALAZAR MEMORIAL GENERAL HOSPITAL","HospitalID\nDoH Short Code":"7121","LATITUDE":"10.75357","LONGITUDE":"121.94242","Region":"Region 6","Province":"Aklan","Address":"T.A. Fornier St., San Jose, Antique","Contact":"asmgh119@yahoo.com","Type":"Public","Service Capability Level":"Level 2","Capacity":"100","COVID Capacity\n(Y/N)":"","Notes":""},
{"DOH code":"26150","Hospital":"PANAY HEALTH CARE MULTI-PURPOSE COOPERATIVE","HospitalID\nDoH Short Code":"26150","LATITUDE":"11.706485","LONGITUDE":"122.371107","Region":"Region 6","Province":"Aklan","Address":"Osmena Ave., Estancia, Kalibo","Contact":"036-2681098","Type":"Private","Service Capability Level":"Level 2","Capacity":"100","COVID Capacity\n(Y/N)":"","Notes":""},
{"DOH code":"512","Hospital":"DR. PABLO O. TORRE SR. MEMORIAL HOSPITAL","HospitalID\nDoH Short Code":"512","LATITUDE":"10.682491","LONGITUDE":"122.958131","Region":"Region 6","Province":"Negros Occidental","Address":"B.S. Aquino Drive, Bacolod City","Contact":"034-4337331 / 4345532 / info@rivermedcenter.net","Type":"Private","Service Capability Level":"Level 3","Capacity":"300","COVID Capacity\n(Y/N)":"","Notes":""},
{"DOH code":"414","Hospital":"ADVENTIST MEDICAL CENTER-BACOLOD, INC.","HospitalID\nDoH Short Code":"414","LATITUDE":"10.64754","LONGITUDE":"122.94948","Region":"Region 6","Province":"Negros Occidental","Address":"C.V. Ramos Ave., Taculing, Bacolod City","Contact":"03-4334831-4836 / 4887777 / 4332255 fax","Type":"Private","Service Capability Level":"Level 3","Capacity":"150","COVID Capacity\n(Y/N)":"","Notes":""},
{"DOH code":"6595","Hospital":"THE DOCTORS HOSPITAL, INC.","HospitalID\nDoH Short Code":"6595","LATITUDE":"10.67802","LONGITUDE":"122.96048","Region":"Region 6","Province":"Negros Occidental","Address":"B.S. Aquino Drive, Bacolod City","Contact":"034-4682100 / 4331256 fax / thedoctorshosp@yahoo.com","Type":"Private","Service Capability Level":"Level 3","Capacity":"150","COVID Capacity\n(Y/N)":"","Notes":""},
{"DOH code":"4299","Hospital":"CORAZON LOCSIN MONTELIBANO MEMORIAL REGIONAL HOSPITAL","HospitalID\nDoH Short Code":"4299","LATITUDE":"10.67246","LONGITUDE":"122.95074","Region":"Region 6","Province":"Negros Occidental","Address":"Lacson St., Bacolod City, Negros Occidental","Contact":"034-4332697 / 7086893 fax / clmmrh_coh@yahoo.com","Type":"Private","Service Capability Level":"Level 3","Capacity":"400","COVID Capacity\n(Y/N)":"","Notes":""},
{"DOH code":"38115","Hospital":"HOLY MOTHER OF MERCY HOSPITAL","HospitalID\nDoH Short Code":"38115","LATITUDE":"9.98309","LONGITUDE":"122.82048","Region":"Region 6","Province":"Negros Occidental","Address":"Don Emilio Village, Rizal St., Brgy. 9, Kabankalan City, Negros Occidental","Contact":"\n(034) 471-8881 to 8885/ hmomhkab@gmail.com","Type":"Private","Service Capability Level":"Level 2/3","Capacity":"","COVID Capacity\n(Y/N)":"","Notes":""},
{"DOH code":"32022","Hospital":"SOUTH BACOLOD GENERAL HOSPITAL AND MEDICAL CENTER, INC.","HospitalID\nDoH Short Code":"32022","LATITUDE":"10.614644","LONGITUDE":"122.926604","Region":"Region 6","Province":"Negros Occidental","Address":"Araneta Highway, Brgy. Pahanocoy, Bacolod City, Negros Occidental","Contact":"034-7042911-14","Type":"Private","Service Capability Level":"Level 2","Capacity":"100","COVID Capacity\n(Y/N)":"","Notes":""},
{"DOH code":"2523","Hospital":"BACOLOD QUEEN OF MERCY HOSPITAL (Old name: BACOLOD OUR MOTHER OF MERCY SPECIALTY HOSPITAL)","HospitalID\nDoH Short Code":"2523","LATITUDE":"","LONGITUDE":"","Region":"Region 6","Province":"Negros Occidental","Address":"Eroreco, Mandalagan, Bacolod City","Contact":"034-7080181 / 4341031 / 4322887 fax / admin@bolmsh.com","Type":"Private","Service Capability Level":"Level 2","Capacity":"200","COVID Capacity\n(Y/N)":"","Notes":""},
{"DOH code":"3050","Hospital":"VISAYAS COMMUNITY MEDICAL CENTER, INC.","HospitalID\nDoH Short Code":"3050","LATITUDE":"10.3063546","LONGITUDE":"123.8950452","Region":"Region 7","Province":"Cebu","Address":"85 Osmena Blvd., Cebu City","Contact":"032-2380000 / 2612111 fax / adventisthospitalcevbu@gmail.com","Type":"Private","Service Capability Level":"Level 3","Capacity":"200","COVID Capacity\n(Y/N)":"","Notes":""},
{"DOH code":"2990","Hospital":"Cebu Doctors' University Hospital, Inc.","HospitalID\nDoH Short Code":"2990","LATITUDE":"10.3145","LONGITUDE":"123.89196","Region":"Region 7","Province":"Cebu","Address":"Capitol Site, Osmena Blvd., Cebu City","Contact":"032-2575111 / 2554797 / 2536021 fax / pvl_cduh@yahoo.com","Type":"Private","Service Capability Level":"Level 3","Capacity":"300","COVID Capacity\n(Y/N)":"","Notes":""},
{"DOH code":"32091","Hospital":"UNIVERSITY OF CEBU MEDICAL CENTER, INC.","HospitalID\nDoH Short Code":"32091","LATITUDE":"10.32063","LONGITUDE":"123.93053","Region":"Region 7","Province":"Cebu","Address":"Capitol Site, Osmena Blvd., Cebu City","Contact":"032-5170888 / 5170888 fax / ucmedcompliance@gmail.com","Type":"Private","Service Capability Level":"Level 2","Capacity":"200","COVID Capacity\n(Y/N)":"","Notes":""},
{"DOH code":"5328","Hospital":"VICENTE GULLAS MEMORIAL HOSPITAL, INC","HospitalID\nDoH Short Code":"5328","LATITUDE":"10.34707","LONGITUDE":"123.91514","Region":"Region 7","Province":"Cebu","Address":"Banilad, Mandaue City","Contact":"032-3469292 / 3466137 fax / gullashospital@yahoo.com","Type":"Private","Service Capability Level":"Level 2","Capacity":"50","COVID Capacity\n(Y/N)":"","Notes":""},
{"DOH code":"744","Hospital":"AMOSUP SEAMENS HOSPITAL-CEBU","HospitalID\nDoH Short Code":"744","LATITUDE":"10.33474","LONGITUDE":"123.95149","Region":"Region 7","Province":"Cebu","Address":"Camino Vicinal St., Brgy. Umapad, Mandaue City","Contact":"032-5170888 / 5170888 fax / wcchi.mandaue.cebu@outlook.com","Type":"Private","Service Capability Level":"Level 2","Capacity":"60","COVID Capacity\n(Y/N)":"","Notes":""},
{"DOH code":"2172","Hospital":"PERPETUAL SUCCOUR HOSPITAL OF CEBU, INC.","HospitalID\nDoH Short Code":"2172","LATITUDE":"10.31466","LONGITUDE":"123.90049","Region":"Region 7","Province":"Cebu","Address":"Gorordo Ave., Brgy. Kamputhaw, Cebu City","Contact":"032-2338620 / 2312362 / psssshad2016@gmail.com","Type":"Private","Service Capability Level":"Level 3","Capacity":"200","COVID Capacity\n(Y/N)":"","Notes":""},
{"DOH code":"4705","Hospital":"CEBU NORTH GENERAL HOSPITAL, INC.","HospitalID\nDoH Short Code":"4705","LATITUDE":"10.37308","LONGITUDE":"123.91439","Region":"Region 7","Province":"Cebu","Address":"Kauswagan Road, Talamban, Cebu City","Contact":"032-3437777 / 3437240 fax / cebunorthgeneral hospital@yahoo.com","Type":"Private","Service Capability Level":"Level 2","Capacity":"150","COVID Capacity\n(Y/N)":"","Notes":""},